(data_type, time, state, temperature, alt, ram_diff, bno_x, bno_y, bno_z, high_x, high_y, high_z, gyro_x, gyro_y, gyro_z, mag_x, mag_y, mag_z, heading, roll, pitch)
0,488,0,0.0,0.01837158,0.0,3.72,0.36,-9.02,3.14,2.71,9.81,0.0,0.3125,-0.1875,-21.75,-62.56,18.5,198.3,21.6,-177.8
0,497,0,0.0,0.01837158,0.0,3.72,0.36,-9.02,3.14,2.71,9.81,0.0625,-0.0625,0.0625,-21.75,-62.56,18.5,198.3,21.6,-177.8
0,506,0,0.0,0.07971191,0.0,3.91,0.36,-8.79,3.14,2.71,9.81,0.125,0.1875,0.0625,-21.75,-62.56,18.5,198.3,21.6,-177.8
0,528,0,0.0,0.07971191,0.0,4.05,0.28,-8.889999,3.14,2.71,9.81,-0.125,-0.125,0.0,-22.87,-64.75,17.56,198.3,21.6,-177.8
0,541,0,0.0,0.07971191,0.0,3.65,0.32,-9.65,3.14,2.71,9.81,0.125,-0.25,0.125,-22.87,-64.75,17.56,198.3,21.6,-177.8
0,562,0,0.0,0.07971191,0.0,3.54,0.26,-9.45,3.14,2.71,9.81,0.5625,-0.75,0.125,-22.87,-64.75,17.56,198.3,21.6,-177.8
0,579,0,0.0,0.07971191,-16.8125,3.71,0.38,-8.99,3.14,2.71,9.81,0.3125,-0.3125,0.0,-23.25,-66.25,18.06,198.3,21.6,-177.8
0,596,0,0.009999999,0.01837158,-16.8125,3.83,0.32,-8.849999,3.14,2.71,9.81,0.0,-0.375,-0.0625,-23.25,-66.25,18.06,198.3,21.6,-177.8
0,610,0,0.009999999,0.01837158,-16.8125,3.55,0.22,-8.92,3.14,2.71,9.81,-0.375,0.125,0.0,-23.25,-66.25,18.06,198.3,21.6,-177.8
0,757,0,0.009999999,-0.04296875,-196.8125,3.57,0.26,-8.82,3.14,2.71,9.81,0.125,-0.5,0.125,-21.37,-65.18,17.56,198.3,21.5,-177.8
0,769,0,0.0,0.01837158,93.1875,3.23,0.22,-8.76,3.14,2.71,9.81,-0.375,-0.1875,-0.0625,-21.37,-65.18,17.56,198.3,21.5,-177.8
1,18.0,36.0,11.95679,N,73.0,44.0,45.35591,E,0.0,0.0,0.0,0.0,b'GLL',-524.1004,755.0,12.0
0,788,0,0.009999999,0.01837158,93.1875,3.54,0.32,-9.679999,3.14,2.71,9.81,0.0625,0.5,-0.125,-19.18,-59.18,10.75,198.3,21.5,-177.8
0,802,0,0.0,0.07971191,93.1875,3.94,0.32,-10.07,3.14,2.71,9.81,-0.0625,0.5,0.0625,-19.18,-59.18,10.75,198.3,21.5,-177.8
0,826,0,0.009999999,0.01837158,93.1875,3.54,0.23,-8.82,3.14,2.71,9.81,-0.125,0.375,-0.0625,-19.18,-57.0,10.0,198.3,21.5,-177.8
0,842,0,0.009999999,0.01837158,93.1875,3.71,0.35,-8.44,3.14,2.71,9.81,0.125,0.1875,-0.125,-19.18,-57.0,10.0,198.3,21.5,-177.8
0,866,0,0.009999999,-0.04296875,451.1875,4.09,0.48,-9.48,3.14,2.71,9.81,0.0625,0.25,0.0,-19.18,-57.0,10.0,198.3,21.5,-177.8
0,883,0,0.009999999,-0.04296875,451.1875,3.66,0.43,-9.45,3.14,2.71,9.81,0.1875,-0.5625,0.125,-19.87,-61.06,12.87,198.3,21.5,-177.8
0,907,0,0.009999999,-0.04296875,451.1875,3.85,0.26,-9.08,3.14,2.71,9.81,0.5625,-0.5625,0.125,-19.87,-61.06,12.87,198.3,21.5,-177.8
0,922,0,0.009999999,-0.04296875,451.1875,3.24,0.17,-8.599999,3.14,2.71,9.81,0.125,-0.4375,0.1875,-19.87,-61.06,12.87,198.3,21.5,-177.8
0,937,0,0.009999999,-0.04296875,451.1875,3.11,0.11,-8.849999,3.14,2.71,9.81,-0.0625,-0.1875,-0.0625,-20.25,-57.75,11.18,198.3,21.5,-177.8
0,950,0,0.009999999,0.01837158,451.1875,4.09,0.52,-10.19,3.14,2.71,9.81,0.1875,0.0625,-0.0625,-20.25,-57.75,11.18,198.3,21.5,-177.8
0,960,0,0.009999999,-0.04296875,60.1875,4.07,0.29,-9.71,3.14,2.71,9.81,0.1875,0.375,0.0,-20.25,-57.75,11.18,198.3,21.5,-177.8
0,969,0,0.009999999,-0.04296875,60.1875,4.07,0.29,-9.71,3.14,2.71,9.81,0.1875,0.0625,-0.125,-20.25,-57.75,11.18,198.3,21.5,-177.8
1,18.0,36.0,11.95679,N,73.0,44.0,45.34447,E,0.0,0.0,0.0,0.0,b'GLL',-524.1004,959.0,10.0
0,978,0,0.009999999,-0.04296875,60.1875,3.71,0.39,-9.28,3.14,2.71,9.81,0.1875,0.1875,-0.0625,-18.06,-56.25,7.75,198.3,21.5,-177.8
0,986,0,0.009999999,-0.04296875,60.1875,3.57,0.3,-8.82,3.14,2.71,9.81,0.1875,0.1875,-0.0625,-18.06,-56.25,7.75,198.3,21.5,-177.8
0,996,0,0.009999999,-0.04296875,60.1875,3.54,0.3,-8.679999,3.14,2.71,9.81,0.1875,0.125,-0.0625,-18.06,-56.25,7.75,198.3,21.5,-177.8
0,1006,0,0.0,-0.04296875,60.1875,3.92,0.3,-8.92,3.14,2.71,9.81,0.3125,-0.0625,0.0625,-18.06,-56.25,7.75,198.3,21.5,-177.8
0,1016,0,0.009999999,-0.1043091,60.1875,4.11,0.22,-9.139999,3.14,2.71,9.81,0.3125,-0.1875,0.0,-18.06,-56.25,7.75,198.3,21.5,-177.8
0,1026,0,0.009999999,-0.04296875,60.1875,3.95,0.34,-9.29,3.14,2.71,9.81,0.125,-0.375,0.0,-18.06,-56.25,7.75,198.3,21.5,-177.8
0,1034,0,0.009999999,-0.1043091,60.1875,3.86,0.38,-9.51,3.14,2.71,9.81,0.125,-0.375,0.0625,-19.18,-60.68,11.68,198.3,21.5,-177.8
0,1044,0,0.009999999,-0.1043091,60.1875,3.65,0.4,-9.389999,3.14,2.71,9.81,0.1875,-0.4375,0.125,-19.18,-60.68,11.68,198.3,21.5,-177.8
0,1056,0,0.009999999,-0.1043091,-317.8125,3.74,0.25,-9.33,3.14,2.71,9.81,0.375,-0.4375,0.4375,-19.18,-60.68,11.68,198.3,21.5,-177.8
0,1066,0,0.009999999,-0.1043091,-317.8125,3.41,0.12,-8.77,3.14,2.71,9.81,0.3125,-0.25,0.125,-19.18,-60.68,11.68,198.3,21.5,-177.8
0,1076,0,0.009999999,-0.1043091,-317.8125,3.25,0.11,-8.599999,3.14,2.71,9.81,-0.0625,-0.25,0.0625,-19.18,-60.68,11.68,198.3,21.5,-177.8
0,1082,0,0.009999999,-0.1043091,-317.8125,3.17,0.17,-9.0,3.14,2.71,9.81,-0.125,0.125,-0.1875,-19.18,-56.25,11.18,198.3,21.5,-177.8
0,1090,0,0.009999999,-0.1043091,-317.8125,3.17,0.17,-9.0,3.14,2.71,9.81,-0.0625,0.3125,-0.0625,-19.18,-56.25,11.18,198.3,21.5,-177.8
0,1097,0,0.009999999,-0.1655884,-317.8125,3.68,0.24,-9.8,3.14,2.71,9.81,-0.0625,0.3125,-0.0625,-19.18,-56.25,11.18,198.3,21.5,-177.8
0,1106,0,0.009999999,-0.1655884,-317.8125,3.86,0.43,-9.82,3.14,2.71,9.81,0.0,0.25,-0.0625,-19.18,-56.25,11.18,198.3,21.5,-177.8
0,1116,0,0.009999999,-0.1655884,-317.8125,4.03,0.32,-10.03,3.14,2.71,9.81,0.25,0.3125,-0.1875,-19.18,-56.25,11.18,198.3,21.5,-177.8
0,1250,0,0.009999999,-0.1655884,-158.8125,3.81,0.35,-9.34,3.14,2.71,9.81,0.125,0.1875,-0.1875,-18.75,-56.25,9.87,198.3,21.5,-177.8
0,1258,0,0.009999999,-0.1655884,-158.8125,3.92,0.37,-9.52,3.14,2.71,9.81,0.125,0.1875,-0.1875,-18.75,-56.25,9.87,198.3,21.5,-177.8
0,1267,0,0.009999999,-0.1655884,-158.8125,3.84,0.33,-9.29,3.14,2.71,9.81,0.125,0.125,-0.0625,-18.75,-56.25,9.87,198.3,21.5,-177.8
0,1277,0,0.009999999,-0.1655884,-158.8125,3.85,0.41,-8.77,3.14,2.71,9.81,-0.125,0.3125,-0.0625,-18.75,-56.25,9.87,198.3,21.5,-177.8
0,1285,0,0.009999999,-0.1655884,-158.8125,3.96,0.39,-8.95,3.14,2.71,9.81,0.1875,0.25,-0.125,-18.06,-57.75,10.75,198.3,21.5,-177.8
0,1295,0,0.009999999,-0.1655884,-158.8125,4.12,0.31,-8.8,3.14,2.71,9.81,0.1875,-0.0625,0.0625,-18.06,-57.75,10.75,198.3,21.5,-177.8
0,1306,0,0.009999999,-0.1655884,-158.8125,3.81,0.34,-8.74,3.14,2.71,9.81,0.1875,-0.375,0.0625,-18.06,-57.75,10.75,198.3,21.5,-177.8
0,1317,0,0.009999999,-0.1655884,-158.8125,3.96,0.28,-9.29,3.14,2.71,9.81,0.3125,-0.5625,0.1875,-18.06,-57.75,10.75,198.3,21.5,-177.8
0,1327,0,0.009999999,-0.1655884,-158.8125,3.82,0.28,-9.179999,3.14,2.71,9.81,0.1875,-0.5,0.25,-18.06,-57.75,10.75,198.3,21.5,-177.8
0,1336,0,0.009999999,-0.1655884,246.1875,3.59,0.26,-9.07,3.14,2.71,9.81,0.125,-0.625,0.25,-19.18,-58.5,10.37,198.3,21.5,-177.8
0,1402,0,0.009999999,-0.1655884,246.1875,3.88,0.28,-8.98,3.14,2.71,9.81,0.125,0.4375,-0.125,-18.06,-55.5,10.75,198.3,21.5,-177.8
0,1417,0,0.009999999,-0.1655884,246.1875,3.91,0.3,-9.04,3.14,2.71,9.81,0.125,0.125,0.0,-18.06,-55.5,10.75,198.3,21.5,-177.8
0,1439,0,0.009999999,-0.1655884,618.1875,4.0,0.18,-9.05,3.14,2.71,9.81,0.3125,-0.5625,0.125,-19.56,-58.87,10.37,198.3,21.5,-177.8
0,1460,0,0.009999999,-0.1655884,618.1875,4.27,0.53,-9.26,3.14,2.71,9.81,0.375,-0.9375,0.3125,-19.56,-58.87,10.37,198.3,21.5,-177.8
0,1517,0,0.009999999,-0.1043091,618.1875,4.33,0.11,-11.84,3.14,2.71,9.81,0.5625,1.0,-0.125,-18.75,-56.25,10.75,198.3,21.5,-177.8
1,18.0,36.0,11.95679,N,73.0,44.0,45.34492,E,0.0313784,0.0,0.0,0.0,b'ROV',-524.1004,1453.0,16.0
0,1539,0,0.009999999,-0.1043091,298.1875,3.63,0.22,-8.3,3.14,2.71,9.81,0.5,-0.25,-0.4375,-18.75,-55.5,10.37,198.3,21.5,-177.8
0,1580,0,0.009999999,-0.1043091,298.1875,4.24,-0.24,-8.16,3.14,2.71,9.81,-0.875,0.125,0.4375,-18.75,-53.37,9.06,198.3,21.5,-177.8
1,18.0,36.0,11.95679,N,73.0,44.0,45.34492,E,0.0313784,0.0,0.0,0.0,b'VNC',-524.1004,1453.0,97.0
0,1601,0,0.009999999,-0.1043091,298.1875,3.07,-0.52,-11.19,3.14,2.71,9.81,-0.4375,-0.0625,0.1875,-18.75,-53.37,9.06,198.3,21.5,-177.8
0,1651,0,0.009999999,-0.04296875,-27.8125,4.15,0.5,-7.98,3.14,2.71,9.81,0.3125,0.0625,-0.375,-18.06,-51.87,7.75,198.3,21.5,-177.8
1,18.0,36.0,11.95679,N,73.0,44.0,45.34492,E,0.0313784,0.0,0.9700001,0.0,b'GGA',73.69958,1591.0,19.0
0,1673,0,0.009999999,-0.04296875,-27.8125,4.21,0.43,-9.61,3.14,2.71,9.81,-0.375,0.25,0.0625,-18.06,-51.87,7.75,198.3,21.5,-177.8
0,1724,0,0.009999999,0.01837158,251.1875,3.31,0.37,-8.389999,3.14,2.71,9.81,0.1875,-0.25,-0.0625,-17.68,-51.87,7.0,198.3,21.5,-177.8
0,1744,0,0.009999999,-0.04296875,251.1875,3.45,0.7,-8.849999,3.14,2.71,9.81,0.0,0.1875,-0.375,-18.06,-50.75,8.18,198.3,21.5,-177.8
0,1794,0,0.009999999,0.01837158,251.1875,3.11,0.31,-8.04,3.14,2.71,9.81,0.0,-0.1875,0.25,-17.25,-50.0,6.06,198.3,21.5,-177.8
0,1813,0,0.009999999,0.01837158,349.1875,3.59,0.29,-8.84,3.14,2.71,9.81,0.5625,-0.3125,0.25,-17.25,-50.0,6.06,198.3,21.5,-177.8
0,1863,0,0.009999999,-0.04296875,349.1875,4.19,-0.02,-11.02,3.14,2.71,9.81,-0.5,-0.6875,0.25,-14.75,-44.5,-0.75,198.3,21.5,-177.8
0,1883,0,0.009999999,-0.04296875,349.1875,4.1,0.19,-9.21,3.14,2.71,9.81,0.8125,0.0625,-0.125,-14.0,-44.06,-0.25,198.3,21.5,-177.8
0,1917,0,0.009999999,-0.04296875,265.1875,3.92,0.04,-8.92,3.14,2.71,9.81,0.25,0.0625,0.0625,-14.0,-44.06,-0.25,198.3,21.5,-177.8
0,1936,0,0.009999999,-0.04296875,265.1875,4.28,0.18,-10.61,3.14,2.71,9.81,0.1875,0.125,-0.0625,-15.18,-46.0,1.0,198.3,21.5,-177.8
0,1948,0,0.009999999,0.01837158,265.1875,3.73,0.54,-9.74,3.14,2.71,9.81,0.1875,0.25,0.1875,-15.18,-46.0,1.0,198.3,21.5,-177.8
0,1962,0,0.009999999,0.01837158,265.1875,3.09,0.39,-8.83,3.14,2.71,9.81,0.5,0.0625,0.0625,-15.18,-46.0,1.0,198.3,21.5,-177.8
0,1971,0,0.009999999,0.01837158,265.1875,3.37,0.03,-9.03,3.14,2.71,9.81,0.5,0.0625,0.0625,-15.18,-46.0,1.0,198.3,21.5,-177.8
1,18.0,36.0,11.95679,N,73.0,44.0,45.34492,E,0.0313784,0.0,0.9700001,2.16,b'GLL',73.69958,1961.0,10.0
0,1981,0,0.009999999,0.01837158,265.1875,3.57,0.53,-8.55,3.14,2.71,9.81,0.4375,-0.0625,-0.0625,-15.18,-46.0,1.0,198.3,21.5,-177.8
0,1989,0,0.009999999,-0.04296875,265.1875,3.61,0.48,-8.69,3.14,2.71,9.81,-0.375,-0.3125,-0.125,-14.75,-45.18,-0.25,198.3,21.5,-177.8
0,1999,0,0.009999999,-0.04296875,113.1875,4.0,-0.05,-9.22,3.14,2.71,9.81,0.5625,0.125,0.0625,-14.75,-45.18,-0.25,198.3,21.5,-177.8
0,2010,0,0.009999999,0.01837158,113.1875,3.75,0.62,-9.099999,3.14,2.71,9.81,-0.0625,-0.25,0.0625,-14.75,-45.18,-0.25,198.3,21.5,-177.8
0,2034,0,0.009999999,0.01837158,113.1875,3.61,0.59,-9.01,3.14,2.71,9.81,-0.375,-0.25,0.125,-14.75,-45.18,1.75,198.3,21.5,-177.8
0,2041,0,0.009999999,0.01837158,113.1875,3.61,0.59,-9.01,3.14,2.71,9.81,-0.375,-0.25,0.125,-14.75,-45.18,1.75,198.3,21.5,-177.8
0,2050,0,0.009999999,0.01837158,113.1875,3.62,-0.07,-9.0,3.14,2.71,9.81,-0.1875,-0.1875,0.0,-14.75,-45.18,1.75,198.3,21.5,-177.8
0,2060,0,0.009999999,0.01837158,113.1875,3.41,0.07,-8.95,3.14,2.71,9.81,0.625,0.125,0.1875,-14.75,-45.18,1.75,198.3,21.5,-177.8
0,2070,0,0.009999999,-0.04296875,113.1875,3.26,0.4,-8.76,3.14,2.71,9.81,-0.3125,0.0,0.0,-14.75,-45.18,1.75,198.3,21.5,-177.8
0,2080,0,0.009999999,-0.04296875,113.1875,4.07,0.05,-9.929999,3.14,2.71,9.81,0.0,0.1875,-0.125,-14.75,-45.18,1.75,198.3,21.5,-177.8
0,2088,0,0.009999999,0.01837158,113.1875,3.79,0.58,-9.3,3.14,2.71,9.81,0.375,0.125,0.25,-15.5,-44.5,1.37,198.3,21.5,-177.8
0,2099,0,0.009999999,-0.04296875,-37.8125,3.52,0.68,-8.84,3.14,2.71,9.81,-0.3125,-0.125,-0.0625,-15.5,-44.5,1.37,198.3,21.5,-177.8
0,2110,0,0.009999999,0.01837158,-37.8125,4.02,0.13,-9.41,3.14,2.71,9.81,0.25,-0.0625,0.125,-15.5,-44.5,1.37,198.3,21.5,-177.8
0,2120,0,0.009999999,0.01837158,-37.8125,3.52,0.46,-8.7,3.14,2.71,9.81,0.25,0.125,0.125,-15.5,-44.5,1.37,198.3,21.5,-177.8
0,2130,0,0.009999999,0.01837158,-37.8125,3.59,0.41,-8.88,3.14,2.71,9.81,-0.4375,-0.125,-0.0625,-15.5,-44.5,1.37,198.3,21.5,-177.8
0,2139,0,0.009999999,0.01837158,-37.8125,3.88,-0.18,-9.26,3.14,2.71,9.81,0.3125,0.125,0.125,-15.5,-43.37,1.37,198.3,21.5,-177.8
0,2150,0,0.009999999,0.01837158,-37.8125,3.49,0.31,-8.889999,3.14,2.71,9.81,0.0625,-0.0625,0.0625,-15.5,-43.37,1.37,198.3,21.5,-177.8
0,2160,0,0.009999999,-0.04296875,-37.8125,3.9,0.24,-9.67,3.14,2.71,9.81,-0.25,-0.25,0.0625,-15.5,-43.37,1.37,198.3,21.5,-177.8
0,2170,0,0.009999999,-0.04296875,-37.8125,4.06,0.07,-9.86,3.14,2.71,9.81,0.4375,0.1875,0.0,-15.5,-43.37,1.37,198.3,21.5,-177.8
0,2180,0,0.009999999,-0.04296875,-37.8125,3.55,0.64,-8.95,3.14,2.71,9.81,-0.125,-0.5,0.0,-15.5,-43.37,1.37,198.3,21.5,-177.8
0,2188,0,0.009999999,-0.04296875,-156.8125,3.94,0.0,-9.57,3.14,2.71,9.81,0.0625,-0.25,-0.0625,-16.18,-44.5,1.75,198.3,21.5,-177.8
0,2200,0,0.009999999,-0.04296875,-156.8125,3.67,0.17,-9.15,3.14,2.71,9.81,0.6875,0.0,0.125,-16.18,-44.5,1.75,198.3,21.5,-177.8
0,2210,0,0.009999999,-0.04296875,-156.8125,3.45,0.51,-8.78,3.14,2.71,9.81,-0.125,-0.1875,-0.0625,-16.18,-44.5,1.75,198.3,21.5,-177.8
0,2220,0,0.009999999,-0.04296875,-156.8125,4.07,-0.15,-9.51,3.14,2.71,9.81,-0.0625,0.125,-0.125,-16.18,-44.5,1.75,198.3,21.5,-177.8
0,2230,0,0.009999999,-0.04296875,-156.8125,3.53,0.39,-8.679999,3.14,2.71,9.81,0.4375,0.125,0.0625,-16.18,-44.5,1.75,198.3,21.5,-177.8
0,2239,0,0.009999999,-0.04296875,-156.8125,3.43,0.6,-8.88,3.14,2.71,9.81,-0.5,-0.25,-0.0625,-15.5,-44.87,4.0,198.3,21.5,-177.8
0,2250,0,0.009999999,-0.04296875,-156.8125,3.94,0.21,-9.51,3.14,2.71,9.81,0.3125,0.0,-0.0625,-15.5,-44.87,4.0,198.3,21.5,-177.8
0,2260,0,0.009999999,-0.04296875,-156.8125,3.49,0.6599999,-8.65,3.14,2.71,9.81,0.5,0.1875,0.125,-15.5,-44.87,4.0,198.3,21.5,-177.8
0,2270,0,0.009999999,-0.04296875,-156.8125,3.57,0.5,-8.929999,3.14,2.71,9.81,-0.5,-0.375,-0.1875,-15.5,-44.87,4.0,198.3,21.5,-177.8
0,2400,0,0.009999999,-0.1043091,65.1875,3.68,0.23,-9.139999,3.14,2.71,9.81,0.8125,0.1875,0.1875,-15.75,-44.5,1.37,198.3,21.5,-177.8
0,2414,0,0.009999999,-0.1043091,65.1875,3.22,0.62,-8.36,3.14,2.71,9.81,-0.25,-0.25,-0.1875,-15.75,-44.5,1.37,198.3,21.5,-177.8
0,2429,0,0.0,-0.04296875,65.1875,4.28,-0.31,-10.23,3.14,2.71,9.81,1.0,0.1875,0.0625,-15.75,-44.5,1.37,198.3,21.5,-177.9
0,2442,0,0.0,-0.04296875,65.1875,3.33,0.55,-8.559999,3.14,2.71,9.81,-0.3125,-0.25,0.0625,-15.18,-44.06,2.18,198.3,21.5,-177.9
0,2463,0,0.0,-0.1043091,65.1875,4.23,-0.28,-10.03,3.14,2.71,9.81,1.125,0.125,0.0625,-15.18,-44.06,2.18,198.3,21.5,-177.9
0,2521,0,0.009999999,-0.1043091,810.1875,4.0,0.08,-9.69,3.14,2.71,9.81,1.0,0.1875,0.125,-15.18,-44.5,2.56,198.3,21.5,-177.9
1,18.0,36.0,11.95679,N,73.0,44.0,45.34561,E,0.084876,0.0,0.9700001,2.16,b'ROV',73.69958,2456.0,17.0
0,2558,0,0.009999999,-0.1043091,810.1875,3.26,0.53,-8.11,3.14,2.71,9.81,-0.4375,-0.1875,0.0625,-16.18,-44.06,1.37,198.3,21.5,-177.9
0,2584,0,0.009999999,-0.1043091,382.1875,3.85,0.33,-9.16,3.14,2.71,9.81,0.9375,0.3125,0.0625,-15.75,-43.68,1.87,198.3,21.5,-177.9
1,18.0,36.0,11.95679,N,73.0,44.0,45.34561,E,0.084876,0.0,0.9700001,2.16,b'VNC',73.69958,2456.0,111.0
0,2606,0,0.009999999,-0.04296875,382.1875,3.58,0.45,-9.37,3.14,2.71,9.81,0.875,-0.125,0.25,-15.75,-43.68,1.87,198.3,21.5,-178.0
0,2655,0,0.0,-0.04296875,382.1875,3.14,0.47,-8.349999,3.14,2.71,9.81,-0.375,-0.1875,-0.0625,-16.18,-44.87,2.18,198.3,21.5,-178.0
1,18.0,36.0,11.95679,N,73.0,44.0,45.34561,E,0.084876,0.0,0.9700001,2.16,b'GGA',73.3996,2596.0,18.0
0,2676,0,0.0,0.01837158,-306.8125,4.32,-0.13,-10.15,3.14,2.71,9.81,0.0625,-0.0625,0.125,-16.18,-44.87,2.18,198.3,21.5,-178.0
0,2728,0,0.0,0.07971191,-306.8125,4.23,-0.04,-10.04,3.14,2.71,9.81,0.6875,0.125,0.0625,-14.75,-44.06,1.37,198.3,21.5,-178.0
0,2748,0,0.0,0.07971191,-306.8125,3.9,0.2,-9.79,3.14,2.71,9.81,-0.5,-0.125,-0.0625,-15.5,-44.87,1.0,198.3,21.5,-178.0
0,2796,0,0.0,0.07971191,-528.8125,4.28,0.0,-9.969999,3.14,2.71,9.81,0.375,0.0625,0.125,-15.5,-44.06,1.37,198.3,21.5,-178.0
0,2817,0,0.009999999,0.01837158,-528.8125,3.21,0.49,-8.8,3.14,2.71,9.81,0.375,0.0,0.0625,-15.5,-44.06,1.37,198.3,21.5,-178.0
0,2865,0,0.009999999,-0.04296875,-527.8125,3.44,0.38,-8.21,3.14,2.71,9.81,-0.5625,-0.3125,0.0625,-15.5,-43.37,1.37,198.3,21.5,-178.0
0,2887,0,0.009999999,-0.04296875,-527.8125,3.98,0.19,-9.75,3.14,2.71,9.81,-0.4375,-0.0625,0.0,-15.5,-42.68,1.0,198.3,21.5,-178.0
0,2919,0,0.009999999,-0.04296875,-527.8125,4.23,0.12,-9.95,3.14,2.71,9.81,-0.5,-0.25,0.0625,-15.5,-42.68,1.0,198.3,21.5,-178.0
0,2933,0,0.009999999,-0.04296875,-527.8125,3.25,0.54,-9.0,3.14,2.71,9.81,-0.0625,-0.25,-0.125,-15.5,-42.68,1.0,198.3,21.5,-178.0
0,2945,0,0.009999999,-0.04296875,-527.8125,4.07,0.13,-9.87,3.14,2.71,9.81,0.6875,0.1875,0.125,-15.18,-42.68,1.75,198.3,21.5,-178.0
0,2957,0,0.009999999,-0.04296875,-472.8125,4.12,0.11,-9.76,3.14,2.71,9.81,-0.25,-0.125,0.0,-15.18,-42.68,1.75,198.3,21.5,-178.0
0,2967,0,0.009999999,-0.04296875,-472.8125,3.33,0.47,-9.059999,3.14,2.71,9.81,0.5625,0.375,-0.125,-15.18,-42.68,1.75,198.3,21.5,-178.0
1,18.0,36.0,11.95679,N,73.0,44.0,45.34561,E,0.084876,0.0,0.9700001,2.16,b'GLL',73.3996,2956.0,10.0
0,2975,0,0.009999999,-0.04296875,-472.8125,4.11,0.22,-9.889999,3.14,2.71,9.81,0.5625,0.375,-0.125,-15.18,-42.68,1.75,198.3,21.5,-178.0
0,2984,0,0.009999999,-0.04296875,-472.8125,4.17,0.16,-9.809999,3.14,2.71,9.81,-0.0625,-0.4375,0.1875,-15.18,-42.68,1.75,198.3,21.5,-178.0
0,2992,0,0.009999999,-0.04296875,-472.8125,3.32,0.31,-8.17,3.14,2.71,9.81,-0.25,-0.1875,-0.0625,-15.5,-43.0,1.0,198.3,21.5,-178.0
0,3003,0,0.009999999,-0.04296875,-472.8125,4.05,0.22,-9.78,3.14,2.71,9.81,0.5625,0.0625,-0.125,-15.5,-43.0,1.0,198.3,21.5,-178.0
0,3013,0,0.009999999,-0.04296875,-472.8125,4.22,0.09999999,-9.79,3.14,2.71,9.81,0.1875,-0.0625,0.125,-15.5,-43.0,1.0,198.3,21.5,-178.0
0,3023,0,0.009999999,-0.04296875,-472.8125,3.24,0.34,-8.02,3.14,2.71,9.81,-0.25,-0.375,0.0,-15.5,-43.0,1.0,198.3,21.5,-178.0
0,3034,0,0.009999999,-0.04296875,-472.8125,4.12,0.18,-9.83,3.14,2.71,9.81,0.5,0.0,-0.0625,-15.5,-43.0,1.0,198.3,21.5,-178.0
0,3043,0,0.009999999,-0.04296875,-472.8125,4.17,0.15,-9.92,3.14,2.71,9.81,0.25,0.0,0.1875,-15.5,-41.18,1.0,198.3,21.5,-178.0
0,3053,0,0.009999999,-0.04296875,-462.8125,3.25,0.34,-8.04,3.14,2.71,9.81,-0.3125,-0.1875,-0.0625,-15.5,-41.18,1.0,198.3,21.5,-178.0
0,3064,0,0.009999999,-0.04296875,-462.8125,3.29,0.5,-9.13,3.14,2.71,9.81,0.5625,-0.125,-0.125,-15.5,-41.18,1.0,198.3,21.5,-178.0
0,3074,0,0.009999999,-0.04296875,-462.8125,4.18,0.12,-9.84,3.14,2.71,9.81,0.4375,0.0625,0.3125,-15.5,-41.18,1.0,198.3,21.5,-178.0
0,3084,0,0.009999999,-0.04296875,-462.8125,3.25,0.33,-7.99,3.14,2.71,9.81,-0.5,-0.3125,0.0,-15.5,-41.18,1.0,198.3,21.5,-178.0
0,3090,0,0.009999999,-0.04296875,-462.8125,3.32,0.48,-9.03,3.14,2.71,9.81,0.25,0.0625,-0.0625,-15.18,-39.68,1.37,198.3,21.5,-178.0
0,3098,0,0.009999999,-0.04296875,-462.8125,3.32,0.48,-9.03,3.14,2.71,9.81,0.625,0.3125,0.125,-15.18,-39.68,1.37,198.3,21.5,-178.0
0,3105,0,0.009999999,-0.04296875,-462.8125,4.27,0.12,-9.929999,3.14,2.71,9.81,0.625,0.3125,0.125,-15.18,-39.68,1.37,198.3,21.5,-178.0
0,3114,0,0.009999999,-0.04296875,-462.8125,3.26,0.34,-8.03,3.14,2.71,9.81,-0.4375,-0.4375,0.0,-15.18,-39.68,1.37,198.3,21.5,-178.0
0,3124,0,0.009999999,-0.04296875,-462.8125,3.28,0.54,-9.11,3.14,2.71,9.81,0.1875,0.0,-0.0625,-15.18,-39.68,1.37,198.3,21.5,-178.0
0,3134,0,0.009999999,-0.04296875,-462.8125,4.11,0.16,-9.7,3.14,2.71,9.81,0.6875,0.0625,0.0625,-15.18,-39.68,1.37,198.3,21.5,-178.0
0,3143,0,0.009999999,-0.04296875,-472.8125,3.26,0.32,-7.98,3.14,2.71,9.81,-0.3125,-0.375,0.0625,-15.75,-40.37,0.06,198.3,21.5,-178.0
0,3154,0,0.009999999,-0.04296875,-472.8125,3.29,0.47,-9.01,3.14,2.71,9.81,0.0,-0.0625,-0.1875,-15.75,-40.37,0.06,198.3,21.5,-178.0
0,3164,0,0.009999999,-0.04296875,-472.8125,4.01,0.28,-9.679999,3.14,2.71,9.81,0.5625,0.1875,0.125,-15.75,-40.37,0.06,198.3,21.5,-178.0
0,3174,0,0.009999999,0.01837158,-472.8125,3.34,0.28,-8.09,3.14,2.71,9.81,0.0,-0.25,0.0625,-15.75,-40.37,0.06,198.3,21.5,-178.0
0,3184,0,0.009999999,-0.04296875,-472.8125,3.27,0.5,-9.04,3.14,2.71,9.81,0.0,-0.125,0.0,-15.75,-40.37,0.06,198.3,21.5,-178.0
0,3192,0,0.009999999,0.01837158,-472.8125,4.0,0.26,-9.639999,3.14,2.71,9.81,0.625,0.0625,0.0,-14.75,-39.68,0.56,198.3,21.5,-178.0
0,3203,0,0.009999999,0.01837158,-472.8125,4.29,0.03,-10.09,3.14,2.71,9.81,-0.0625,-0.1875,0.125,-14.75,-39.68,0.56,198.3,21.5,-178.0
0,3214,0,0.009999999,0.01837158,-472.8125,3.18,0.51,-8.889999,3.14,2.71,9.81,-0.3125,-0.0625,-0.125,-14.75,-39.68,0.56,198.3,21.5,-178.0
0,3224,0,0.009999999,0.01837158,-508.8125,4.01,0.26,-9.66,3.14,2.71,9.81,0.6875,0.1875,0.125,-14.75,-39.68,0.56,198.3,21.5,-178.0
0,3250,0,0.009999999,0.01837158,-508.8125,3.97,0.28,-9.61,3.14,2.71,9.81,0.3125,0.375,0.0,-15.18,-39.68,1.0,198.3,21.5,-178.0
0,3257,0,0.009999999,0.01837158,-508.8125,3.97,0.28,-9.61,3.14,2.71,9.81,0.3125,0.375,0.0,-15.18,-39.68,1.0,198.3,21.5,-178.0
0,3265,0,0.009999999,-0.04296875,-508.8125,4.27,0.0,-10.13,3.14,2.71,9.81,0.4375,-0.0625,0.1875,-15.18,-39.68,1.0,198.3,21.5,-178.0
0,3275,0,0.009999999,0.01837158,-508.8125,3.37,0.27,-8.15,3.14,2.71,9.81,-0.4375,-0.375,0.0,-15.18,-39.68,1.0,198.3,21.5,-178.0
0,3285,0,0.009999999,0.01837158,-508.8125,3.91,0.38,-9.58,3.14,2.71,9.81,0.125,0.0,-0.0625,-15.18,-39.68,1.0,198.3,21.5,-178.0
0,3293,0,0.009999999,0.01837158,-508.8125,4.38,0.02,-10.25,3.14,2.71,9.81,0.5625,0.25,0.125,-14.75,-39.0,-0.75,198.3,21.5,-178.0
0,3304,0,0.009999999,-0.04296875,-508.8125,3.51,0.31,-8.389999,3.14,2.71,9.81,-0.5625,-0.4375,0.0625,-14.75,-39.0,-0.75,198.3,21.5,-178.0
0,3314,0,0.009999999,-0.04296875,-508.8125,3.89,0.32,-9.639999,3.14,2.71,9.81,0.125,0.1875,-0.125,-14.75,-39.0,-0.75,198.3,21.5,-178.0
0,3324,0,0.009999999,-0.04296875,-508.8125,4.31,-0.02,-10.15,3.14,2.71,9.81,0.6875,0.1875,0.0,-14.75,-39.0,-0.75,198.3,21.5,-178.0
0,3335,0,0.009999999,-0.04296875,-427.8125,3.45,0.3,-8.36,3.14,2.71,9.81,-0.3125,-0.4375,0.125,-14.75,-39.0,-0.75,198.3,21.5,-178.0
0,3405,0,0.009999999,-0.04296875,-427.8125,3.1,0.45,-8.27,3.14,2.71,9.81,-0.4375,-0.0625,0.0625,-14.75,-37.5,-1.18,198.2,21.5,-178.0
0,3570,0,0.0,0.07971191,129.1875,3.35,0.59,-9.19,3.14,2.71,9.81,0.5625,0.3125,-0.0625,-15.18,-37.06,-2.37,198.2,21.5,-178.0
0,3585,0,0.009999999,0.01837158,129.1875,4.17,0.09,-10.01,3.14,2.71,9.81,0.1875,-0.0625,0.0625,-15.18,-37.06,-2.37,198.2,21.5,-178.0
0,3604,0,0.009999999,0.01837158,129.1875,3.93,0.32,-9.57,3.14,2.71,9.81,0.25,0.0,0.0,-14.75,-36.68,-2.87,198.2,21.5,-178.0
0,3621,0,0.009999999,0.01837158,-45.8125,3.45,0.27,-8.309999,3.14,2.71,9.81,-0.5625,-0.5,0.0625,-14.75,-36.68,-2.87,198.2,21.5,-178.0
1,18.0,36.0,11.95747,N,73.0,44.0,45.34744,E,0.0216048,0.0,0.9700001,2.16,b'ROV',73.3996,3597.0,18.0
0,3654,0,0.009999999,0.01837158,-45.8125,3.45,0.23,-8.38,3.14,2.71,9.81,-0.3125,-0.4375,0.125,-15.75,-36.0,-2.0,198.2,21.5,-178.0
0,3673,0,0.009999999,0.01837158,-45.8125,4.29,0.14,-10.25,3.14,2.71,9.81,0.5625,0.0625,0.0,-15.75,-36.0,-2.0,198.2,21.5,-178.0
1,18.0,36.0,11.95747,N,73.0,44.0,45.34744,E,0.0216048,0.0,0.9700001,2.16,b'VNC',73.3996,3597.0,69.0
0,3694,0,0.009999999,0.07971191,-45.8125,3.18,0.46,-8.44,3.14,2.71,9.81,-0.375,-0.3125,0.0,-14.75,-36.37,-2.87,198.2,21.5,-178.0
0,3711,0,0.009999999,0.07971191,-45.8125,3.66,0.19,-8.98,3.14,2.71,9.81,0.1875,-0.1875,0.1875,-14.75,-36.37,-2.87,198.2,21.5,-178.0
1,18.0,36.0,11.95747,N,73.0,44.0,45.34744,E,0.0216048,0.0,0.9700001,2.16,b'GGA',73.19958,3684.0,22.0
0,3731,0,0.009999999,0.07971191,-72.8125,4.2,0.23,-10.05,3.14,2.71,9.81,0.3125,-0.1875,-0.125,-14.75,-36.37,-2.87,198.2,21.5,-178.0
0,3745,0,0.009999999,0.07971191,-72.8125,3.97,0.09,-9.45,3.14,2.71,9.81,0.5,0.1875,0.125,-15.18,-35.56,-5.0,198.2,21.5,-178.0
0,3769,0,0.009999999,0.07971191,-72.8125,3.41,0.55,-9.2,3.14,2.71,9.81,0.5625,0.4375,0.0,-15.18,-35.56,-5.0,198.2,21.5,-178.0
0,3794,0,0.009999999,0.07971191,-72.8125,3.31,0.51,-8.94,3.14,2.71,9.81,-0.125,0.0,-0.0625,-16.18,-35.56,-3.25,198.2,21.5,-178.0
0,3817,0,0.009999999,0.07971191,-187.8125,3.52,0.25,-8.34,3.14,2.71,9.81,0.0,-0.375,0.125,-16.18,-35.56,-3.25,198.2,21.5,-178.0
0,3863,0,0.009999999,0.07971191,-187.8125,3.77,0.39,-9.34,3.14,2.71,9.81,0.0,0.375,0.0,-15.75,-33.37,-3.25,198.2,21.5,-178.0
0,3885,0,0.009999999,0.07971191,-187.8125,3.29,0.43,-8.55,3.14,2.71,9.81,-0.1875,-0.1875,0.0625,-15.75,-33.37,-3.25,198.2,21.5,-178.0
0,3917,0,0.009999999,0.01837158,-231.8125,3.27,0.34,-8.19,3.14,2.71,9.81,-0.375,-0.375,0.125,-16.18,-34.87,-3.75,198.2,21.5,-178.0
0,3935,0,0.009999999,0.01837158,-231.8125,4.14,0.26,-9.82,3.14,2.71,9.81,0.5625,-0.125,-0.125,-16.18,-34.87,-3.75,198.2,21.5,-178.0
0,3945,0,0.009999999,0.07971191,-231.8125,3.43,0.29,-8.26,3.14,2.71,9.81,0.25,0.0625,0.1875,-15.75,-35.56,-2.0,198.2,21.5,-178.0
0,3959,0,0.009999999,0.07971191,-231.8125,3.26,0.54,-9.03,3.14,2.71,9.81,-0.375,0.0,-0.0625,-15.75,-35.56,-2.0,198.2,21.5,-178.0
0,3969,0,0.009999999,0.07971191,-231.8125,3.99,0.25,-9.5,3.14,2.71,9.81,0.25,-0.0625,0.0625,-15.75,-35.56,-2.0,198.2,21.5,-178.0
1,18.0,36.0,11.95747,N,73.0,44.0,45.34744,E,0.0216048,0.0,0.9700001,2.16,b'GLL',73.19958,3959.0,9.0
0,3979,0,0.009999999,0.07971191,-231.8125,4.21,0.07,-10.02,3.14,2.71,9.81,0.4375,0.1875,0.125,-15.75,-35.56,-2.0,198.2,21.5,-178.0
0,3988,0,0.009999999,0.07971191,-231.8125,3.21,0.46,-8.73,3.14,2.71,9.81,-0.5,-0.125,-0.0625,-15.75,-35.56,-2.0,198.2,21.5,-178.0
0,3997,0,0.009999999,0.07971191,-474.8125,3.8,0.36,-9.37,3.14,2.71,9.81,0.0625,0.0,-0.1875,-15.18,-34.87,-2.37,198.2,21.5,-178.0
0,4008,0,0.009999999,0.07971191,-474.8125,4.29,0.12,-10.25,3.14,2.71,9.81,0.3125,0.25,0.0,-15.18,-34.87,-2.37,198.2,21.5,-178.0
0,4017,0,0.009999999,0.07971191,-474.8125,3.25,0.44,-8.679999,3.14,2.71,9.81,-0.1875,-0.3125,0.125,-15.18,-34.87,-2.37,198.2,21.5,-178.0
0,4027,0,0.009999999,0.07971191,-474.8125,3.63,0.44,-9.29,3.14,2.71,9.81,-0.3125,-0.1875,-0.125,-15.18,-34.87,-2.37,198.2,21.5,-178.0
0,4038,0,0.009999999,0.07971191,-474.8125,4.32,0.09999999,-10.14,3.14,2.71,9.81,0.375,0.0625,-0.0625,-15.18,-34.87,-2.37,198.2,21.5,-178.0
0,4047,0,0.009999999,0.07971191,-474.8125,3.67,0.15,-8.889999,3.14,2.71,9.81,0.0625,-0.4375,0.25,-14.75,-35.25,-2.0,198.2,21.5,-178.0
0,4058,0,0.009999999,0.07971191,-474.8125,3.54,0.42,-9.07,3.14,2.71,9.81,-0.3125,-0.25,-0.0625,-14.75,-35.25,-2.0,198.2,21.5,-178.0
0,4068,0,0.009999999,0.07971191,-474.8125,4.17,0.25,-10.04,3.14,2.71,9.81,0.375,0.1875,0.0,-14.75,-35.25,-2.0,198.2,21.5,-178.0
0,4077,0,0.009999999,0.07971191,-474.8125,3.96,0.08,-9.429999,3.14,2.71,9.81,0.25,0.0625,0.1875,-14.75,-35.25,-2.0,198.2,21.5,-178.0
0,4088,0,0.009999999,0.07971191,-474.8125,3.37,0.54,-9.099999,3.14,2.71,9.81,-0.4375,-0.5,0.0625,-14.75,-35.25,-2.0,198.2,21.5,-178.0
0,4095,0,0.009999999,0.07971191,-497.8125,4.17,0.16,-9.87,3.14,2.71,9.81,0.25,0.0625,-0.0625,-15.18,-34.87,-2.37,198.2,21.5,-178.0
0,4106,0,0.009999999,0.07971191,-497.8125,4.08,0.04,-9.75,3.14,2.71,9.81,0.5,-0.0625,-0.0625,-15.18,-34.87,-2.37,198.2,21.5,-178.0
0,4117,0,0.009999999,0.07971191,-497.8125,3.26,0.3,-8.11,3.14,2.71,9.81,-0.4375,-0.4375,0.0625,-15.18,-34.87,-2.37,198.2,21.5,-178.0
0,4128,0,0.009999999,0.07971191,-497.8125,3.96,0.3,-9.679999,3.14,2.71,9.81,-0.0625,-0.125,-0.125,-15.18,-34.87,-2.37,198.2,21.5,-178.0
0,4138,0,0.009999999,0.07971191,-497.8125,4.27,0.09,-10.05,3.14,2.71,9.81,0.5625,0.1875,0.0,-15.18,-34.87,-2.37,198.2,21.5,-178.0
0,4147,0,0.009999999,0.07971191,-497.8125,3.49,0.26,-8.33,3.14,2.71,9.81,0.0,-0.1875,0.0625,-14.75,-37.06,-1.56,198.2,21.5,-178.0
0,4158,0,0.009999999,0.07971191,-497.8125,3.88,0.29,-9.429999,3.14,2.71,9.81,-0.25,0.0625,-0.125,-14.75,-37.06,-1.56,198.2,21.5,-178.0
0,4168,0,0.009999999,0.07971191,-497.8125,4.35,0.09999999,-10.26,3.14,2.71,9.81,0.5625,0.25,-0.125,-14.75,-37.06,-1.56,198.2,21.5,-178.0
0,4178,0,0.009999999,0.07971191,-497.8125,3.46,0.24,-8.4,3.14,2.71,9.81,0.125,0.0625,0.125,-14.75,-37.06,-1.56,198.2,21.5,-178.0
0,4188,0,0.009999999,0.07971191,-482.8125,3.15,0.46,-8.559999,3.14,2.71,9.81,-0.3125,-0.375,-0.0625,-14.75,-37.06,-1.56,198.2,21.5,-178.0
0,4196,0,0.009999999,0.07971191,-482.8125,4.34,0.18,-10.27,3.14,2.71,9.81,0.25,-0.0625,0.0625,-15.5,-36.0,-2.87,198.2,21.5,-178.0
0,4207,0,0.009999999,0.07971191,-482.8125,3.77,0.2,-8.88,3.14,2.71,9.81,0.3125,-0.25,0.125,-15.5,-36.0,-2.87,198.2,21.5,-178.0
0,4218,0,0.009999999,0.07971191,-482.8125,3.2,0.46,-8.47,3.14,2.71,9.81,-0.5625,-0.3125,0.0625,-15.5,-36.0,-2.87,198.2,21.5,-178.0
0,4228,0,0.009999999,0.07971191,-482.8125,4.32,0.11,-10.13,3.14,2.71,9.81,0.0,0.0625,-0.0625,-15.5,-36.0,-2.87,198.2,21.5,-178.0
0,4238,0,0.009999999,0.07971191,-482.8125,3.76,0.15,-9.08,3.14,2.71,9.81,0.5,0.1875,0.0625,-15.5,-36.0,-2.87,198.2,21.5,-178.0
0,4261,0,0.009999999,0.07971191,-482.8125,3.49,0.46,-9.07,3.14,2.71,9.81,0.5625,0.25,0.0,-15.5,-36.68,-0.75,198.2,21.5,-178.0
0,4269,0,0.009999999,0.07971191,-482.8125,4.12,0.07,-9.62,3.14,2.71,9.81,0.5625,0.25,0.0,-15.5,-36.68,-0.75,198.2,21.5,-178.0
0,4279,0,0.009999999,0.07971191,-482.8125,3.38,0.33,-8.24,3.14,2.71,9.81,-0.125,-0.1875,0.1875,-15.5,-36.68,-0.75,198.2,21.5,-178.0
0,4289,0,0.009999999,0.01837158,-429.8125,3.34,0.53,-9.07,3.14,2.71,9.81,-0.3125,0.0625,-0.125,-15.5,-36.68,-0.75,198.2,21.5,-178.0
0,4297,0,0.009999999,0.01837158,-429.8125,4.13,0.06,-9.84,3.14,2.71,9.81,0.5625,0.1875,0.125,-14.37,-34.5,-2.0,198.2,21.5,-178.0
0,4308,0,0.009999999,0.01837158,-429.8125,3.33,0.3,-8.09,3.14,2.71,9.81,0.1875,-0.125,0.1875,-14.37,-34.5,-2.0,198.2,21.5,-178.0
0,4318,0,0.009999999,0.01837158,-429.8125,3.28,0.49,-8.889999,3.14,2.71,9.81,-0.5,-0.125,-0.125,-14.37,-34.5,-2.0,198.2,21.5,-178.0
0,4328,0,0.009999999,0.01837158,-429.8125,3.94,0.33,-9.51,3.14,2.71,9.81,0.125,0.125,-0.0625,-14.37,-34.5,-2.0,198.2,21.5,-178.0
0,4339,0,0.009999999,0.01837158,-429.8125,3.54,0.27,-8.46,3.14,2.71,9.81,0.5,0.1875,0.125,-14.37,-34.5,-2.0,198.2,21.5,-178.0
0,4402,0,0.009999999,0.01837158,-254.8125,4.32,0.18,-10.23,3.14,2.71,9.81,0.0625,-0.125,0.0625,-16.18,-36.0,-1.56,198.2,21.5,-178.0
0,4418,0,0.009999999,-0.04296875,-254.8125,3.49,0.42,-9.15,3.14,2.71,9.81,-0.25,-0.25,-0.125,-16.18,-36.0,-1.56,198.2,21.5,-178.0
0,4438,0,0.009999999,-0.04296875,-254.8125,3.92,0.13,-9.48,3.14,2.71,9.81,0.25,0.0,0.125,-16.18,-36.0,-1.56,198.2,21.5,-178.0
0,4458,0,0.009999999,-0.04296875,-254.8125,4.06,0.27,-9.679999,3.14,2.71,9.81,0.3125,0.125,-0.0625,-15.18,-37.06,-1.06,198.2,21.5,-178.0
0,4621,0,0.009999999,-0.04296875,-209.8125,4.04,0.26,-9.71,3.14,2.71,9.81,-0.125,-0.125,-0.0625,-15.75,-36.68,-2.37,198.2,21.5,-178.0
1,18.0,36.0,11.95679,N,73.0,44.0,45.3479,E,0.007716,0.0,0.9700001,2.16,b'ROV',73.19958,4451.0,164.0
0,4643,0,0.009999999,-0.04296875,-209.8125,3.43,0.23,-8.36,3.14,2.71,9.81,0.3125,0.125,-0.1875,-14.75,-37.06,-2.0,198.2,21.5,-178.0
0,4677,0,0.009999999,-0.04296875,-50.8125,3.31,0.45,-8.78,3.14,2.71,9.81,-0.5,-0.25,0.0625,-14.75,-37.06,-2.0,198.2,21.5,-178.0
1,18.0,36.0,11.95679,N,73.0,44.0,45.3479,E,0.007716,0.0,0.9700001,2.16,b'VNC',73.19958,4451.0,219.0
0,4700,0,0.009999999,-0.04296875,-50.8125,3.69,0.18,-8.889999,3.14,2.71,9.81,0.375,0.0625,0.0,-16.18,-37.06,-0.25,198.2,21.5,-178.0
0,4717,0,0.009999999,-0.04296875,-50.8125,3.48,0.43,-9.08,3.14,2.71,9.81,-0.125,0.0,0.0,-16.18,-37.06,-0.25,198.2,21.5,-178.0
1,18.0,36.0,11.95679,N,73.0,44.0,45.3479,E,0.007716,0.0,0.9700001,2.16,b'GGA',73.09961,4690.0,21.0
0,4738,0,0.009999999,-0.04296875,-50.8125,3.39,0.32,-8.429999,3.14,2.71,9.81,0.0625,-0.25,0.25,-16.18,-37.06,-0.25,198.2,21.5,-178.0
0,4751,0,0.009999999,-0.1043091,-50.8125,3.43,0.45,-9.12,3.14,2.71,9.81,-0.25,0.0,-0.0625,-15.5,-37.06,-1.18,198.2,21.5,-178.0
0,4774,0,0.009999999,-0.1043091,213.1875,3.34,0.27,-8.22,3.14,2.71,9.81,-0.25,-0.25,0.0,-15.5,-37.06,-1.18,198.2,21.5,-178.0
0,4792,0,0.009999999,-0.1043091,213.1875,3.97,0.3,-9.55,3.14,2.71,9.81,0.1875,0.0625,-0.125,-15.5,-36.68,-1.18,198.2,21.5,-178.0
0,4813,0,0.009999999,-0.1043091,213.1875,3.29,0.43,-8.849999,3.14,2.71,9.81,-0.0625,0.125,-0.125,-15.5,-36.68,-1.18,198.2,21.5,-178.0
0,4861,0,0.009999999,-0.1043091,-46.8125,4.28,0.22,-10.04,3.14,2.71,9.81,0.3125,0.1875,-0.0625,-15.18,-36.37,-2.0,198.2,21.5,-178.0
0,4884,0,0.009999999,-0.04296875,-46.8125,3.41,0.46,-9.139999,3.14,2.71,9.81,0.125,0.0625,-0.0625,-15.18,-36.37,-2.0,198.2,21.5,-178.0
0,4915,0,0.009999999,-0.04296875,-46.8125,3.31,0.46,-8.849999,3.14,2.71,9.81,0.0625,0.0625,-0.125,-15.5,-36.0,-2.37,198.2,21.5,-178.0
0,4930,0,0.009999999,-0.04296875,-46.8125,4.19,0.17,-9.969999,3.14,2.71,9.81,0.5,0.125,0.0625,-15.5,-36.0,-2.37,198.2,21.5,-178.0
0,4945,0,0.009999999,-0.04296875,-46.8125,3.24,0.51,-8.79,3.14,2.71,9.81,-0.1875,-0.125,-0.0625,-14.75,-35.56,-2.87,198.2,21.5,-178.0
0,4955,0,0.009999999,0.01837158,-148.8125,3.8,0.34,-9.46,3.14,2.71,9.81,0.5625,-0.125,0.125,-14.75,-35.56,-2.87,198.2,21.5,-178.0
0,4964,0,0.009999999,-0.04296875,-148.8125,4.28,0.09999999,-10.03,3.14,2.71,9.81,0.0625,-0.3125,0.125,-14.75,-35.56,-2.87,198.2,21.5,-178.0
1,18.0,36.0,11.95679,N,73.0,44.0,45.3479,E,0.007716,0.0,0.9700001,2.16,b'GLL',73.09961,4955.0,9.0
0,4973,0,0.009999999,-0.04296875,-148.8125,3.19,0.43,-8.48,3.14,2.71,9.81,0.0625,-0.3125,0.125,-14.75,-35.56,-2.87,198.2,21.5,-178.0
0,4982,0,0.009999999,-0.04296875,-148.8125,3.7,0.37,-9.23,3.14,2.71,9.81,-0.3125,-0.0625,-0.125,-14.75,-35.56,-2.87,198.2,21.5,-178.0
0,4991,0,0.009999999,-0.04296875,-148.8125,4.27,0.19,-10.11,3.14,2.71,9.81,0.25,0.3125,-0.0625,-14.75,-35.56,-2.87,198.2,21.5,-178.0
0,5000,0,0.009999999,-0.1043091,-148.8125,3.81,0.2,-9.19,3.14,2.71,9.81,0.4375,0.0625,0.125,-15.75,-36.68,-1.56,198.2,21.5,-178.0
0,5011,0,0.009999999,-0.04296875,-148.8125,3.44,0.49,-9.12,3.14,2.71,9.81,-0.25,-0.4375,0.0625,-15.75,-36.68,-1.56,198.2,21.5,-178.0
0,5021,0,0.009999999,-0.04296875,-148.8125,4.21,0.17,-9.88,3.14,2.71,9.81,-0.0625,0.0,0.0,-15.75,-36.68,-1.56,198.2,21.5,-178.0
0,5031,0,0.009999999,-0.04296875,-148.8125,3.97,0.11,-9.51,3.14,2.71,9.81,0.5625,0.25,0.0625,-15.75,-36.68,-1.56,198.2,21.5,-178.0
0,5041,0,0.009999999,-0.04296875,-148.8125,3.34,0.41,-8.98,3.14,2.71,9.81,-0.25,-0.4375,0.1875,-15.75,-36.68,-1.56,198.2,21.5,-178.0
0,5048,0,0.009999999,-0.04296875,-79.8125,4.02,0.33,-9.65,3.14,2.71,9.81,-0.125,0.1875,-0.0625,-16.18,-36.0,-1.56,198.2,21.5,-178.0
0,5055,0,0.009999999,-0.04296875,-79.8125,4.02,0.33,-9.65,3.14,2.71,9.81,0.3125,0.3125,0.0,-16.18,-36.0,-1.56,198.2,21.5,-178.0
0,5063,0,0.009999999,-0.1043091,-79.8125,4.16,0.11,-9.94,3.14,2.71,9.81,0.3125,0.3125,0.0,-16.18,-36.0,-1.56,198.2,21.5,-178.0
0,5072,0,0.009999999,-0.1043091,-79.8125,3.5,0.24,-8.51,3.14,2.71,9.81,0.0625,-0.125,0.125,-16.18,-36.0,-1.56,198.2,21.5,-178.0
0,5082,0,0.009999999,-0.1043091,-79.8125,3.89,0.29,-9.48,3.14,2.71,9.81,-0.25,-0.25,-0.125,-16.18,-36.0,-1.56,198.2,21.5,-178.0
0,5091,0,0.009999999,-0.1043091,-79.8125,4.25,0.14,-10.04,3.14,2.71,9.81,0.3125,0.1875,0.0625,-16.18,-36.0,-1.56,198.2,21.5,-178.0
0,5099,0,0.009999999,-0.1043091,-79.8125,3.47,0.24,-8.559999,3.14,2.71,9.81,0.125,-0.125,0.125,-15.75,-36.37,-2.0,198.2,21.5,-178.0
0,5110,0,0.009999999,-0.1043091,-79.8125,3.69,0.37,-9.25,3.14,2.71,9.81,-0.4375,-0.25,0.0,-15.75,-36.37,-2.0,198.2,21.5,-178.0
0,5121,0,0.009999999,-0.1043091,-79.8125,4.22,0.22,-10.09,3.14,2.71,9.81,0.0625,0.1875,-0.125,-15.75,-36.37,-2.0,198.2,21.5,-178.0
0,5131,0,0.009999999,-0.1043091,-79.8125,3.8,0.15,-9.17,3.14,2.71,9.81,0.4375,0.3125,0.0625,-15.75,-36.37,-2.0,198.2,21.5,-178.0
0,5142,0,0.009999999,-0.1043091,-38.8125,3.26,0.39,-8.45,3.14,2.71,9.81,-0.375,-0.125,0.0625,-15.75,-36.37,-2.0,198.2,21.5,-178.0
0,5149,0,0.009999999,-0.1043091,-38.8125,4.23,0.16,-9.889999,3.14,2.71,9.81,-0.125,-0.125,-0.0625,-15.75,-35.68,-2.06,198.2,21.5,-178.0
0,5157,0,0.009999999,-0.1043091,-38.8125,3.9,0.11,-9.42,3.14,2.71,9.81,0.625,0.375,0.0,-15.75,-35.68,-2.06,198.2,21.5,-178.0
0,5163,0,0.009999999,-0.1043091,-38.8125,3.9,0.11,-9.42,3.14,2.71,9.81,0.625,0.375,0.0,-15.75,-35.68,-2.06,198.2,21.5,-178.0
0,5172,0,0.009999999,-0.1043091,-38.8125,3.27,0.29,-8.19,3.14,2.71,9.81,-0.125,0.125,0.0625,-15.75,-35.68,-2.06,198.2,21.5,-178.0
0,5182,0,0.009999999,-0.1043091,-38.8125,4.05,0.31,-9.78,3.14,2.71,9.81,-0.4375,0.0625,-0.125,-15.75,-35.68,-2.06,198.2,21.5,-178.0
0,5192,0,0.009999999,-0.1043091,-38.8125,4.19,0.09999999,-9.87,3.14,2.71,9.81,0.3125,0.1875,-0.125,-15.75,-35.68,-2.06,198.2,21.5,-178.0
0,5200,0,0.009999999,-0.1043091,-38.8125,3.45,0.32,-8.46,3.14,2.71,9.81,0.25,0.0625,0.25,-15.5,-36.68,-2.0,198.2,21.5,-178.0
0,5210,0,0.009999999,-0.1043091,-38.8125,3.31,0.51,-8.94,3.14,2.71,9.81,-0.375,-0.25,-0.0625,-15.5,-36.68,-2.0,198.2,21.5,-178.0
0,5222,0,0.009999999,-0.1043091,-24.8125,4.16,0.14,-9.969999,3.14,2.71,9.81,-0.3125,-0.5,0.125,-15.5,-36.68,-2.0,198.2,21.5,-178.0
0,5245,0,0.009999999,-0.1043091,-24.8125,3.25,0.41,-8.58,3.14,2.71,9.81,-0.1875,-0.125,-0.0625,-15.5,-37.06,-2.0,198.2,21.5,-178.0
0,5253,0,0.009999999,-0.1043091,-24.8125,4.33,0.17,-10.15,3.14,2.71,9.81,-0.1875,-0.125,-0.0625,-15.5,-37.06,-2.0,198.2,21.5,-178.0
0,5263,0,0.009999999,-0.04296875,-24.8125,3.75,0.26,-9.08,3.14,2.71,9.81,0.5,0.375,0.0,-15.5,-37.06,-2.0,198.2,21.5,-178.0
0,5272,0,0.009999999,-0.04296875,-24.8125,3.3,0.38,-8.55,3.14,2.71,9.81,-0.125,-0.25,0.125,-15.5,-37.06,-2.0,198.2,21.5,-178.0
0,5282,0,0.009999999,-0.04296875,-24.8125,3.59,0.43,-9.179999,3.14,2.71,9.81,-0.0625,-0.3125,-0.0625,-15.5,-37.06,-2.0,198.2,21.5,-178.0
0,5292,0,0.009999999,-0.04296875,-24.8125,3.83,0.11,-9.32,3.14,2.71,9.81,0.3125,0.0625,0.125,-15.5,-37.06,-2.0,198.2,21.5,-178.0
0,5300,0,0.009999999,-0.04296875,-24.8125,3.3,0.3,-8.19,3.14,2.71,9.81,0.25,-0.25,0.1875,-15.5,-35.56,-1.18,198.2,21.5,-178.0
0,5312,0,0.009999999,-0.04296875,-24.8125,3.36,0.49,-8.95,3.14,2.71,9.81,-0.4375,-0.4375,0.0625,-15.5,-35.56,-1.18,198.2,21.5,-178.0
0,5322,0,0.009999999,-0.04296875,-24.8125,4.17,0.12,-9.83,3.14,2.71,9.81,0.0625,0.125,-0.1875,-15.5,-35.56,-1.18,198.2,21.5,-178.0
0,5333,0,0.009999999,-0.04296875,-48.8125,3.44,0.36,-8.58,3.14,2.71,9.81,-0.125,-0.3125,0.125,-15.5,-35.56,-1.18,198.2,21.5,-178.0
0,5402,0,0.009999999,0.01837158,-48.8125,3.26,0.42,-8.61,3.14,2.71,9.81,-0.25,-0.3125,-0.125,-16.18,-36.68,-2.0,198.2,21.5,-178.0
0,5420,0,0.009999999,-0.04296875,-48.8125,4.13,0.18,-9.88,3.14,2.71,9.81,0.5,0.0,0.0625,-16.18,-36.68,-2.0,198.2,21.5,-178.0
0,5439,0,0.009999999,-0.04296875,-5.8125,3.37,0.41,-9.0,3.14,2.71,9.81,0.0625,0.0625,-0.0625,-16.18,-36.68,-2.0,198.2,21.5,-178.0
0,5458,0,0.009999999,-0.04296875,-5.8125,3.44,0.34,-8.639999,3.14,2.71,9.81,-0.125,-0.1875,0.125,-15.5,-35.56,-2.37,198.2,21.5,-178.0
0,5517,0,0.009999999,0.01837158,-5.8125,3.77,0.31,-9.24,3.14,2.71,9.81,0.4375,-0.0625,0.0625,-15.18,-37.87,-0.75,198.2,21.5,-178.0
1,18.0,36.0,11.95679,N,73.0,44.0,45.34859,E,0.0344648,0.0,0.9700001,2.16,b'ROV',73.09961,5451.0,14.0
0,5677,0,0.009999999,0.01837158,-470.8125,3.54,0.47,-9.139999,3.14,2.71,9.81,0.4375,0.1875,0.0,-14.75,-36.37,-2.37,198.2,21.5,-178.1
0,5693,0,0.009999999,0.01837158,-470.8125,3.87,0.09,-9.28,3.14,2.71,9.81,0.125,-0.1875,0.125,-14.75,-36.37,-2.37,198.2,21.5,-178.1
1,18.0,36.0,11.95679,N,73.0,44.0,45.34859,E,0.0344648,0.0,0.9700001,2.16,b'VNC',73.09961,5451.0,235.0
0,5728,0,0.009999999,0.01837158,-213.8125,4.09,0.11,-9.73,3.14,2.71,9.81,-0.3125,-0.4375,0.0625,-15.18,-37.06,-2.0,198.2,21.5,-178.1
0,5743,0,0.009999999,0.01837158,-213.8125,3.93,0.26,-9.49,3.14,2.71,9.81,0.0625,0.0,0.0,-15.18,-37.06,-2.0,198.2,21.5,-178.1
1,18.0,36.0,11.95679,N,73.0,44.0,45.34859,E,0.0344648,0.0,0.9700001,2.16,b'GGA',72.99957,5718.0,19.0
0,5762,0,0.009999999,0.01837158,-213.8125,3.43,0.27,-8.65,3.14,2.71,9.81,-0.125,-0.375,0.125,-15.5,-37.06,-2.37,198.2,21.5,-178.1
0,5780,0,0.009999999,0.01837158,-213.8125,4.24,0.23,-10.03,3.14,2.71,9.81,0.3125,0.125,0.0,-15.5,-37.06,-2.37,198.2,21.5,-178.1
0,5800,0,0.009999999,0.01837158,-213.8125,3.3,0.43,-8.63,3.14,2.71,9.81,-0.25,-0.1875,0.0,-15.5,-37.5,-2.37,198.2,21.5,-178.1
0,5813,0,0.009999999,0.01837158,196.1875,4.19,0.2,-9.82,3.14,2.71,9.81,0.375,0.125,-0.0625,-15.5,-37.5,-2.37,198.2,21.5,-178.1
0,5837,0,0.009999999,0.07971191,196.1875,3.26,0.32,-8.32,3.14,2.71,9.81,0.1875,-0.0625,0.0,-15.5,-37.5,-2.37,198.2,21.5,-178.1
0,5861,0,0.009999999,0.07971191,196.1875,3.48,0.32,-8.66,3.14,2.71,9.81,0.0,-0.3125,0.1875,-15.18,-37.5,-2.37,198.2,21.5,-178.1
0,5882,0,0.009999999,0.07971191,196.1875,4.13,0.09999999,-9.76,3.14,2.71,9.81,0.5625,0.0625,-0.0625,-15.18,-37.5,-2.37,198.2,21.5,-178.1
0,5914,0,0.009999999,0.07971191,-112.8125,3.76,0.4,-9.309999,3.14,2.71,9.81,0.1875,0.5,-0.0625,-15.18,-37.87,-2.37,198.2,21.5,-178.1
0,5933,0,0.009999999,0.07971191,-112.8125,3.27,0.43,-8.55,3.14,2.71,9.81,-0.4375,-0.3125,0.0625,-15.18,-37.87,-2.37,198.2,21.5,-178.1
0,5945,0,0.009999999,0.07971191,-112.8125,3.58,0.4,-9.24,3.14,2.71,9.81,0.1875,0.0625,-0.125,-15.18,-37.87,-2.37,198.2,21.5,-178.1
0,5955,0,0.009999999,0.07971191,-112.8125,3.85,0.08,-9.29,3.14,2.71,9.81,0.5625,0.1875,0.125,-15.5,-37.06,-1.56,198.2,21.5,-178.1
0,5966,0,0.009999999,0.07971191,-112.8125,3.33,0.3,-8.3,3.14,2.71,9.81,-0.1875,-0.5625,0.1875,-15.5,-37.06,-1.56,198.2,21.5,-178.1
1,18.0,36.0,11.95679,N,73.0,44.0,45.34859,E,0.0344648,0.0,0.9700001,2.16,b'GLL',72.99957,5954.0,11.0
0,5976,0,0.009999999,0.07971191,-112.8125,3.4,0.46,-9.04,3.14,2.71,9.81,-0.0625,-0.1875,-0.125,-15.5,-37.06,-1.56,198.2,21.5,-178.1
0,5985,0,0.009999999,0.1410522,-112.8125,4.08,0.28,-9.639999,3.14,2.71,9.81,0.5,0.375,0.0,-15.5,-37.06,-1.56,198.2,21.5,-178.1
0,5995,0,0.009999999,0.07971191,-274.8125,3.48,0.32,-8.639999,3.14,2.71,9.81,0.1875,-0.0625,0.1875,-15.5,-37.06,-1.56,198.2,21.5,-178.1
0,6002,0,0.009999999,0.07971191,-274.8125,3.31,0.51,-8.92,3.14,2.71,9.81,-0.25,-0.1875,-0.0625,-15.75,-38.18,-2.0,198.2,21.5,-178.1
0,6012,0,0.009999999,0.07971191,-274.8125,3.93,0.28,-9.46,3.14,2.71,9.81,0.3125,-0.1875,0.0,-15.75,-38.18,-2.0,198.2,21.5,-178.1
0,6020,0,0.009999999,0.07971191,-274.8125,3.52,0.24,-8.65,3.14,2.71,9.81,0.3125,-0.0625,0.125,-15.75,-38.18,-2.0,198.2,21.5,-178.1
0,6026,0,0.009999999,0.07971191,-274.8125,3.52,0.24,-8.65,3.14,2.71,9.81,0.3125,-0.0625,0.125,-15.75,-38.18,-2.0,198.2,21.5,-178.1
0,6035,0,0.009999999,0.07971191,-274.8125,3.26,0.42,-8.7,3.14,2.71,9.81,-0.375,-0.25,-0.0625,-15.75,-38.18,-2.0,198.2,21.5,-178.1
0,6045,0,0.009999999,0.07971191,-274.8125,3.74,0.38,-9.24,3.14,2.71,9.81,0.0,-0.0625,-0.0625,-15.75,-38.18,-2.0,198.2,21.5,-178.1
0,6054,0,0.009999999,0.07971191,-274.8125,4.26,0.2,-10.0,3.14,2.71,9.81,0.4375,-0.0625,0.125,-15.75,-37.5,-0.75,198.2,21.5,-178.1
0,6065,0,0.009999999,0.07971191,-274.8125,3.26,0.43,-8.57,3.14,2.71,9.81,-0.125,-0.25,0.0625,-15.75,-37.5,-0.75,198.2,21.5,-178.1
0,6075,0,0.009999999,0.07971191,-274.8125,3.6,0.4,-9.25,3.14,2.71,9.81,-0.125,0.0,-0.0625,-15.75,-37.5,-0.75,198.2,21.5,-178.1
0,6086,0,0.009999999,0.07971191,-274.8125,4.16,0.21,-9.82,3.14,2.71,9.81,0.4375,0.25,-0.0625,-15.75,-37.5,-0.75,198.2,21.5,-178.1
0,6095,0,0.009999999,0.07971191,-207.8125,3.32,0.32,-8.349999,3.14,2.71,9.81,0.125,-0.0625,0.1875,-15.75,-37.5,-0.75,198.2,21.5,-178.1
0,6104,0,0.009999999,0.07971191,-207.8125,3.34,0.44,-8.97,3.14,2.71,9.81,-0.3125,-0.0625,-0.0625,-15.5,-38.56,-1.56,198.2,21.5,-178.1
0,6115,0,0.009999999,0.1410522,-207.8125,4.08,0.27,-9.639999,3.14,2.71,9.81,0.375,0.3125,-0.0625,-15.5,-38.56,-1.56,198.2,21.5,-178.1
0,6125,0,0.009999999,0.1410522,-207.8125,4.13,0.11,-9.889999,3.14,2.71,9.81,0.3125,0.0625,0.1875,-15.5,-38.56,-1.56,198.2,21.5,-178.1
0,6135,0,0.009999999,0.1410522,-207.8125,3.33,0.48,-9.0,3.14,2.71,9.81,-0.3125,-0.3125,0.0,-15.5,-38.56,-1.56,198.2,21.5,-178.1
0,6146,0,0.009999999,0.1410522,-207.8125,3.92,0.31,-9.42,3.14,2.71,9.81,0.125,0.0625,-0.125,-15.5,-38.56,-1.56,198.2,21.5,-178.1
0,6155,0,0.009999999,0.1410522,-207.8125,4.17,0.11,-9.91,3.14,2.71,9.81,0.5,0.25,0.1875,-15.75,-36.68,-0.25,198.2,21.5,-178.1
0,6166,0,0.009999999,0.07971191,-207.8125,3.17,0.45,-8.59,3.14,2.71,9.81,-0.3125,-0.125,0.0625,-15.75,-36.68,-0.25,198.2,21.5,-178.1
0,6176,0,0.009999999,0.07971191,-207.8125,3.72,0.38,-9.24,3.14,2.71,9.81,-0.1875,0.1875,-0.0625,-15.75,-36.68,-0.25,198.2,21.5,-178.1
0,6186,0,0.009999999,0.07971191,-147.8125,4.23,0.2,-9.94,3.14,2.71,9.81,0.6875,0.0625,0.0625,-15.75,-36.68,-0.25,198.2,21.5,-178.1
0,6196,0,0.009999999,0.07971191,-147.8125,3.74,0.22,-9.24,3.14,2.71,9.81,0.125,-0.0625,0.125,-15.75,-36.68,-0.25,198.2,21.5,-178.1
0,6203,0,0.009999999,0.07971191,-147.8125,3.56,0.45,-9.27,3.14,2.71,9.81,-0.125,-0.125,0.0625,-15.75,-37.06,-0.75,198.2,21.5,-178.1
0,6212,0,0.009999999,0.07971191,-147.8125,4.14,0.19,-9.73,3.14,2.71,9.81,0.3125,0.125,0.0,-15.75,-37.06,-0.75,198.2,21.5,-178.1
0,6220,0,0.009999999,0.07971191,-147.8125,4.14,0.19,-9.73,3.14,2.71,9.81,0.3125,-0.1875,0.0625,-15.75,-37.06,-0.75,198.2,21.5,-178.1
0,6227,0,0.009999999,0.01837158,-147.8125,3.89,0.06,-9.38,3.14,2.71,9.81,0.3125,-0.1875,0.0625,-15.75,-37.06,-0.75,198.2,21.5,-178.1
0,6237,0,0.009999999,0.07971191,-147.8125,3.27,0.32,-8.33,3.14,2.71,9.81,-0.3125,-0.375,0.0,-15.75,-37.06,-0.75,198.2,21.5,-178.1
0,6246,0,0.009999999,0.07971191,-147.8125,4.08,0.3,-9.639999,3.14,2.71,9.81,0.0625,0.0,-0.0625,-15.75,-37.87,-0.37,198.2,21.5,-178.1
0,6268,0,0.009999999,0.07971191,-147.8125,3.55,0.35,-8.7,3.14,2.71,9.81,-0.0625,-0.375,0.0625,-15.75,-37.87,-0.37,198.2,21.5,-178.1
0,6277,0,0.009999999,0.07971191,-147.8125,3.89,0.35,-9.469999,3.14,2.71,9.81,0.125,0.0,-0.0625,-15.75,-37.87,-0.37,198.2,21.5,-178.1
0,6286,0,0.009999999,0.07971191,-133.8125,4.18,0.03,-9.79,3.14,2.71,9.81,0.5625,0.1875,0.0625,-15.75,-37.87,-0.37,198.2,21.5,-178.1
0,6297,0,0.009999999,0.07971191,-133.8125,3.48,0.26,-8.62,3.14,2.71,9.81,-0.125,-0.3125,0.0625,-15.75,-37.87,-0.37,198.2,21.5,-178.1
0,6305,0,0.009999999,0.01837158,-133.8125,3.81,0.33,-9.28,3.14,2.71,9.81,-0.3125,-0.375,-0.0625,-16.18,-38.18,-1.56,198.2,21.5,-178.1
0,6316,0,0.009999999,0.01837158,-133.8125,4.27,0.21,-10.07,3.14,2.71,9.81,0.4375,0.0625,0.125,-16.18,-38.18,-1.56,198.2,21.5,-178.1
0,6326,0,0.009999999,0.01837158,-133.8125,3.77,0.19,-9.21,3.14,2.71,9.81,0.1875,-0.125,0.1875,-16.18,-38.18,-1.56,198.2,21.5,-178.1
0,6336,0,0.009999999,0.07971191,-133.8125,3.26,0.43,-8.599999,3.14,2.71,9.81,-0.375,-0.3125,-0.0625,-16.18,-38.18,-1.56,198.2,21.5,-178.1
0,6404,0,0.009999999,0.07971191,-45.8125,3.4,0.49,-9.21,3.14,2.71,9.81,-0.125,-0.25,-0.125,-15.75,-36.37,-2.37,198.2,21.5,-178.1
0,6424,0,0.009999999,0.07971191,-45.8125,3.23,0.41,-8.05,3.14,2.71,9.81,0.0625,-0.3125,0.125,-15.75,-36.37,-2.37,198.2,21.5,-178.1
0,6441,0,0.009999999,0.1410522,-45.8125,3.26,0.5,-9.059999,3.14,2.71,9.81,0.5,0.125,0.0625,-15.75,-36.37,-2.37,198.2,21.5,-178.1
0,6460,0,0.009999999,0.07971191,-45.8125,3.37,0.36,-8.139999,3.14,2.71,9.81,-0.375,-0.125,-0.0625,-15.5,-36.37,-2.0,198.2,21.5,-178.1
0,6519,0,0.009999999,0.07971191,422.1875,4.36,0.009999999,-10.27,3.14,2.71,9.81,-0.4375,-0.375,0.0625,-15.18,-35.68,-3.25,198.2,21.5,-178.1
1,18.0,36.0,11.9561,N,73.0,44.0,45.34859,E,0.0555552,0.0,0.9700001,2.16,b'ROV',72.99957,6453.0,16.0
0,6680,0,0.009999999,0.1363525,-184.8125,4.02,0.09,-9.79,3.14,2.71,9.81,-0.125,-0.3125,0.0625,-15.5,-35.68,-3.75,198.2,21.5,-178.1
0,6698,0,0.009999999,0.1363525,-184.8125,3.96,0.3,-9.36,3.14,2.71,9.81,-0.0625,0.25,-0.125,-15.5,-35.68,-3.75,198.2,21.5,-178.1
1,18.0,36.0,11.9561,N,73.0,44.0,45.34859,E,0.0555552,0.0,0.9700001,2.16,b'VNC',72.99957,6453.0,238.0
0,6719,0,0.009999999,0.1363525,-184.8125,3.55,0.28,-8.42,3.14,2.71,9.81,0.125,-0.0625,0.1875,-15.18,-35.25,-4.18,198.2,21.5,-178.1
0,6735,0,0.009999999,0.07971191,-184.8125,4.18,0.14,-10.04,3.14,2.71,9.81,0.3125,-0.125,0.0625,-14.75,-35.25,-2.37,198.2,21.5,-178.1
1,18.0,36.0,11.9561,N,73.0,44.0,45.34859,E,0.0555552,0.0,0.9700001,2.16,b'GGA',72.8996,6709.0,20.0
0,6771,0,0.009999999,0.07971191,119.1875,4.19,0.24,-9.91,3.14,2.71,9.81,0.5625,0.3125,0.125,-14.75,-35.25,-2.37,198.2,21.5,-178.1
0,6786,0,0.009999999,0.07971191,119.1875,3.32,0.4,-8.59,3.14,2.71,9.81,-0.1875,-0.25,0.0625,-14.75,-35.25,-2.37,198.2,21.5,-178.1
0,6809,0,0.009999999,0.07971191,119.1875,3.91,0.12,-9.55,3.14,2.71,9.81,0.5,0.125,0.0625,-15.18,-33.75,-3.25,198.2,21.5,-178.1
0,6825,0,0.009999999,0.01837158,119.1875,3.4,0.44,-9.02,3.14,2.71,9.81,-0.25,-0.125,-0.0625,-15.18,-33.75,-3.25,198.2,21.5,-178.1
0,6847,0,0.009999999,0.01837158,119.1875,3.57,0.28,-8.77,3.14,2.71,9.81,0.1875,0.0625,0.1875,-15.18,-33.75,-3.25,198.2,21.5,-178.1
0,6863,0,0.009999999,0.01837158,158.1875,3.23,0.51,-8.82,3.14,2.71,9.81,0.1875,-0.125,-0.0625,-15.18,-34.5,-4.18,198.2,21.5,-178.1
0,6883,0,0.009999999,0.01837158,158.1875,3.26,0.38,-8.58,3.14,2.71,9.81,-0.1875,-0.375,0.0625,-15.18,-34.5,-4.18,198.2,21.5,-178.1
0,6917,0,0.009999999,0.01837158,158.1875,3.39,0.36,-8.66,3.14,2.71,9.81,0.1875,-0.125,0.1875,-15.75,-34.5,-3.75,198.2,21.5,-178.1
0,6934,0,0.009999999,0.01837158,158.1875,4.07,0.21,-9.48,3.14,2.71,9.81,0.375,-0.0625,0.0,-15.75,-34.5,-3.75,198.2,21.5,-178.1
0,6944,0,0.009999999,0.01837158,158.1875,3.45,0.28,-8.57,3.14,2.71,9.81,0.3125,0.125,0.0625,-15.75,-34.5,-3.75,198.2,21.5,-178.1
0,6955,0,0.009999999,0.01837158,-118.8125,3.32,0.4,-8.73,3.14,2.71,9.81,-0.25,-0.1875,0.0,-15.5,-35.25,-3.75,198.2,21.5,-178.1
0,6963,0,0.009999999,0.01837158,-118.8125,3.32,0.4,-8.73,3.14,2.71,9.81,0.0625,-0.125,0.0,-15.5,-35.25,-3.75,198.2,21.5,-178.1
1,18.0,36.0,11.9561,N,73.0,44.0,45.34859,E,0.0555552,0.0,0.9700001,2.16,b'GLL',72.8996,6954.0,8.0
0,6970,0,0.009999999,0.01837158,-118.8125,3.86,0.37,-9.37,3.14,2.71,9.81,0.0625,-0.125,0.0,-15.5,-35.25,-3.75,198.2,21.5,-178.1
0,6979,0,0.009999999,0.01837158,-118.8125,3.71,0.22,-9.22,3.14,2.71,9.81,0.5,-0.0625,0.125,-15.5,-35.25,-3.75,198.2,21.5,-178.1
0,6989,0,0.009999999,0.01837158,-118.8125,3.31,0.41,-8.72,3.14,2.71,9.81,0.0625,-0.25,0.125,-15.5,-35.25,-3.75,198.2,21.5,-178.1
0,6999,0,0.009999999,0.01837158,-118.8125,3.65,0.34,-9.22,3.14,2.71,9.81,-0.25,-0.1875,0.0,-15.5,-35.25,-3.75,198.2,21.5,-178.1
0,7005,0,0.009999999,0.01837158,-118.8125,4.1,0.19,-9.57,3.14,2.71,9.81,0.3125,0.0625,0.0,-15.18,-34.18,-3.75,198.2,21.5,-178.1
0,7012,0,0.009999999,0.01837158,-118.8125,4.1,0.19,-9.57,3.14,2.71,9.81,0.1875,-0.0625,0.25,-15.18,-34.18,-3.75,198.2,21.5,-178.1
0,7020,0,0.009999999,0.01837158,-118.8125,3.39,0.29,-8.44,3.14,2.71,9.81,0.1875,-0.0625,0.25,-15.18,-34.18,-3.75,198.2,21.5,-178.1
0,7029,0,0.009999999,0.01837158,-118.8125,3.46,0.36,-8.96,3.14,2.71,9.81,-0.25,-0.1875,0.0,-15.18,-34.18,-3.75,198.2,21.5,-178.1
0,7039,0,0.009999999,0.01837158,-166.8125,4.02,0.34,-9.46,3.14,2.71,9.81,0.125,-0.0625,-0.125,-15.18,-34.18,-3.75,198.2,21.5,-178.1
0,7050,0,0.009999999,0.01837158,-166.8125,3.58,0.31,-9.059999,3.14,2.71,9.81,0.375,0.0,0.0625,-15.18,-34.18,-3.75,198.2,21.5,-178.1
0,7058,0,0.009999999,0.01837158,-166.8125,3.37,0.45,-8.79,3.14,2.71,9.81,0.0,-0.25,0.0625,-15.5,-35.25,-3.75,198.2,21.5,-178.1
0,7068,0,0.009999999,0.01837158,-166.8125,3.89,0.31,-9.38,3.14,2.71,9.81,0.0,0.0625,-0.0625,-15.5,-35.25,-3.75,198.2,21.5,-178.1
0,7078,0,0.009999999,0.01837158,-166.8125,4.04,0.24,-9.52,3.14,2.71,9.81,0.3125,0.0,-0.0625,-15.5,-35.25,-3.75,198.2,21.6,-178.1
0,7089,0,0.009999999,0.01837158,-166.8125,3.37,0.33,-8.48,3.14,2.71,9.81,0.25,-0.0625,0.125,-15.5,-35.25,-3.75,198.2,21.6,-178.1
0,7099,0,0.009999999,0.01837158,-166.8125,3.54,0.35,-9.07,3.14,2.71,9.81,-0.3125,-0.3125,0.125,-15.5,-35.25,-3.75,198.2,21.6,-178.1
0,7106,0,0.009999999,0.01837158,-166.8125,4.1,0.26,-9.38,3.14,2.71,9.81,0.0625,-0.0625,0.0,-14.37,-34.18,-3.25,198.2,21.6,-178.1
0,7113,0,0.009999999,0.01837158,-166.8125,4.1,0.26,-9.38,3.14,2.71,9.81,0.375,-0.0625,0.0625,-14.37,-34.18,-3.25,198.2,21.6,-178.1
0,7121,0,0.009999999,0.01837158,-166.8125,3.51,0.34,-8.91,3.14,2.71,9.81,0.375,-0.0625,0.0625,-14.37,-34.18,-3.25,198.2,21.6,-178.1
0,7130,0,0.009999999,0.07971191,-166.8125,3.47,0.41,-8.97,3.14,2.71,9.81,-0.125,-0.1875,0.0625,-14.37,-34.18,-3.25,198.2,21.6,-178.1
0,7139,0,0.009999999,0.07971191,-287.8125,3.95,0.29,-9.3,3.14,2.71,9.81,-0.0625,0.0,-0.125,-14.37,-34.18,-3.25,198.2,21.6,-178.1
0,7150,0,0.009999999,0.07971191,-287.8125,3.96,0.23,-9.59,3.14,2.71,9.81,0.375,-0.125,0.1875,-14.37,-34.18,-3.25,198.2,21.6,-178.1
0,7157,0,0.009999999,0.07971191,-287.8125,3.3,0.37,-8.51,3.14,2.71,9.81,0.1875,-0.25,0.125,-15.18,-34.18,-3.25,198.2,21.6,-178.1
0,7165,0,0.009999999,0.1363525,-287.8125,3.6,0.35,-9.16,3.14,2.71,9.81,-0.3125,-0.0625,-0.0625,-15.18,-34.18,-3.25,198.2,21.6,-178.1
0,7171,0,0.009999999,0.1363525,-287.8125,3.6,0.35,-9.16,3.14,2.71,9.81,-0.3125,-0.0625,-0.0625,-15.18,-34.18,-3.25,198.2,21.6,-178.1
0,7180,0,0.009999999,0.1363525,-287.8125,4.05,0.23,-9.37,3.14,2.71,9.81,0.125,0.0,-0.125,-15.18,-34.18,-3.25,198.2,21.6,-178.1
0,7189,0,0.009999999,0.1363525,-287.8125,3.59,0.32,-8.82,3.14,2.71,9.81,0.3125,0.25,0.0,-15.18,-34.18,-3.25,198.2,21.6,-178.1
0,7200,0,0.009999999,0.1363525,-287.8125,3.57,0.45,-9.13,3.14,2.71,9.81,-0.375,-0.0625,0.0,-15.18,-34.18,-3.25,198.2,21.6,-178.1
0,7207,0,0.009999999,0.1363525,-287.8125,3.93,0.25,-9.26,3.14,2.71,9.81,-0.125,0.125,-0.25,-14.75,-33.0,-3.25,198.2,21.6,-178.1
0,7215,0,0.009999999,0.1363525,-287.8125,3.95,0.2,-9.57,3.14,2.71,9.81,0.3125,0.0625,0.0,-14.75,-33.0,-3.25,198.2,21.6,-178.1
0,7222,0,0.009999999,0.07971191,-287.8125,3.95,0.2,-9.57,3.14,2.71,9.81,0.3125,0.0625,0.0,-14.75,-33.0,-3.25,198.2,21.6,-178.1
0,7230,0,0.009999999,0.07971191,-342.8125,3.35,0.44,-8.62,3.14,2.71,9.81,0.0625,0.0625,-0.0625,-14.75,-33.0,-3.25,198.2,21.6,-178.1
0,7255,0,0.009999999,0.07971191,-342.8125,3.58,0.34,-8.71,3.14,2.71,9.81,0.1875,-0.0625,0.0625,-15.18,-33.37,-3.68,198.2,21.6,-178.1
0,7262,0,0.009999999,0.07971191,-342.8125,3.58,0.34,-8.71,3.14,2.71,9.81,0.1875,-0.0625,0.0625,-15.18,-33.37,-3.68,198.2,21.6,-178.1
0,7270,0,0.009999999,0.07971191,-342.8125,3.58,0.46,-9.139999,3.14,2.71,9.81,-0.4375,-0.0625,0.0,-15.18,-33.37,-3.68,198.2,21.6,-178.1
0,7280,0,0.009999999,0.07971191,-342.8125,4.02,0.23,-9.36,3.14,2.71,9.81,-0.0625,0.25,-0.125,-15.18,-33.37,-3.68,198.2,21.6,-178.1
0,7290,0,0.009999999,0.07971191,-342.8125,3.92,0.04,-9.65,3.14,2.71,9.81,0.4375,0.3125,0.0625,-15.18,-33.37,-3.68,198.2,21.6,-178.1
0,7300,0,0.009999999,0.07971191,-342.8125,3.32,0.46,-8.66,3.14,2.71,9.81,0.0625,-0.1875,0.0,-15.18,-33.37,-3.68,198.2,21.6,-178.1
0,7307,0,0.009999999,0.1363525,-342.8125,3.85,0.44,-9.33,3.14,2.71,9.81,-0.4375,-0.0625,-0.3125,-15.5,-33.75,-4.18,198.2,21.6,-178.1
0,7313,0,0.009999999,0.1363525,-342.8125,3.85,0.44,-9.33,3.14,2.71,9.81,0.125,0.1875,0.0,-15.5,-33.75,-4.18,198.2,21.6,-178.1
0,7321,0,0.009999999,0.07971191,-342.8125,4.06,0.25,-9.69,3.14,2.71,9.81,0.125,0.1875,0.0,-15.5,-33.75,-4.18,198.2,21.6,-178.1
0,7330,0,0.009999999,0.07971191,-140.8125,3.36,0.42,-8.679999,3.14,2.71,9.81,0.25,0.125,0.0,-15.5,-33.75,-4.18,198.2,21.6,-178.1
0,7341,0,0.009999999,0.07971191,-140.8125,3.62,0.47,-9.32,3.14,2.71,9.81,-0.4375,-0.125,0.0,-15.5,-33.75,-4.18,198.2,21.6,-178.1
0,7402,0,0.009999999,0.1363525,-140.8125,3.2,0.56,-8.9,3.14,2.71,9.81,0.125,-0.0625,0.1875,-15.18,-36.0,-3.75,198.2,21.6,-178.1
0,7418,0,0.009999999,0.1363525,213.1875,4.12,0.09999999,-9.79,3.14,2.71,9.81,0.1875,0.3125,0.0625,-15.18,-34.87,-3.25,198.2,21.6,-178.1
0,7439,0,0.009999999,0.1363525,213.1875,3.67,0.46,-9.25,3.14,2.71,9.81,-0.5,-0.1875,-0.125,-15.18,-34.87,-3.25,198.2,21.6,-178.1
0,7605,0,0.009999999,0.1363525,280.1875,3.24,0.43,-8.45,3.14,2.71,9.81,-0.375,0.0,-0.125,-14.75,-35.25,-3.75,198.2,21.6,-178.1
0,7620,0,0.009999999,0.1363525,-86.8125,3.94,0.09999999,-9.559999,3.14,2.71,9.81,0.25,0.3125,0.0625,-14.75,-35.25,-3.75,198.2,21.6,-178.1
1,18.0,36.0,11.95564,N,73.0,44.0,45.34744,E,0.0504112,0.0,0.9700001,2.16,b'ROV',72.8996,7598.0,16.0
0,7642,0,0.009999999,0.1363525,-86.8125,3.39,0.45,-9.15,3.14,2.71,9.81,-0.4375,-0.1875,0.0,-14.75,-35.25,-3.75,198.2,21.6,-178.1
0,7675,0,0.009999999,0.1363525,-86.8125,3.31,0.46,-9.03,3.14,2.71,9.81,0.0625,0.125,-0.0625,-15.18,-35.25,-2.87,198.2,21.6,-178.1
1,18.0,36.0,11.95564,N,73.0,44.0,45.34744,E,0.0504112,0.0,0.9700001,2.16,b'VNC',72.8996,7598.0,70.0
0,7695,0,0.009999999,0.1363525,-86.8125,3.48,0.23,-8.44,3.14,2.71,9.81,-0.25,-0.375,0.0,-15.18,-35.25,-2.87,198.2,21.6,-178.1
0,7710,0,0.009999999,0.1363525,58.1875,3.76,0.38,-9.27,3.14,2.71,9.81,-0.25,-0.1875,-0.125,-15.18,-34.5,-2.37,198.2,21.6,-178.1
1,18.0,36.0,11.95564,N,73.0,44.0,45.34744,E,0.0504112,0.0,0.9700001,2.16,b'GGA',72.79962,7686.0,18.0
0,7735,0,0.009999999,0.07971191,58.1875,3.29,0.4,-8.599999,3.14,2.71,9.81,-0.5,-0.125,-0.0625,-15.18,-34.5,-2.37,198.2,21.6,-178.1
0,7750,0,0.009999999,0.07971191,58.1875,3.8,0.13,-9.28,3.14,2.71,9.81,0.1875,0.25,-0.125,-15.18,-34.5,-2.37,198.2,21.6,-178.1
0,7769,0,0.009999999,0.07971191,58.1875,3.35,0.46,-8.98,3.14,2.71,9.81,-0.625,-0.5,0.0,-15.18,-34.87,-2.87,198.2,21.6,-178.0
0,7792,0,0.009999999,0.07971191,58.1875,3.41,0.37,-8.5,3.14,2.71,9.81,0.4375,0.25,0.0625,-15.18,-34.87,-2.87,198.2,21.6,-178.0
0,7814,0,0.009999999,0.07971191,-307.8125,3.94,0.28,-9.45,3.14,2.71,9.81,0.5,0.0625,0.0,-15.5,-34.5,-3.75,198.2,21.6,-178.0
0,7860,0,0.009999999,0.1363525,-307.8125,3.27,0.38,-8.679999,3.14,2.71,9.81,-0.5625,-0.25,-0.0625,-15.5,-36.37,-2.87,198.2,21.6,-178.0
0,7884,0,0.009999999,0.1363525,-307.8125,4.17,0.17,-9.86,3.14,2.71,9.81,0.3125,0.1875,0.0625,-15.5,-36.37,-2.87,198.2,21.6,-178.0
0,7915,0,0.009999999,0.1363525,-492.8125,4.22,0.22,-9.76,3.14,2.71,9.81,-0.125,-0.125,0.125,-14.37,-33.75,-3.25,198.2,21.6,-178.0
0,7931,0,0.009999999,0.2590332,-492.8125,3.34,0.46,-9.059999,3.14,2.71,9.81,-0.3125,0.125,-0.1875,-14.37,-33.75,-3.25,198.2,21.6,-178.0
0,7946,0,0.009999999,0.2023926,-492.8125,3.96,0.28,-9.45,3.14,2.71,9.81,0.125,0.25,0.0625,-14.37,-33.75,-3.25,198.2,21.6,-178.0
0,7957,0,0.009999999,0.2023926,-492.8125,4.17,0.03,-9.94,3.14,2.71,9.81,-0.4375,-0.1875,-0.0625,-14.75,-36.0,-2.37,198.2,21.6,-178.0
0,7965,0,0.009999999,0.2023926,-492.8125,3.18,0.47,-8.74,3.14,2.71,9.81,0.0,0.0,-0.0625,-14.75,-36.0,-2.37,198.2,21.6,-178.0
1,18.0,36.0,11.95564,N,73.0,44.0,45.34744,E,0.0504112,0.0,0.9700001,2.16,b'GLL',72.79962,7956.0,8.0
0,7974,0,0.009999999,0.2023926,-492.8125,3.85,0.34,-9.32,3.14,2.71,9.81,0.0,0.0,-0.0625,-14.75,-36.0,-2.37,198.2,21.6,-178.0
0,7983,0,0.009999999,0.2023926,-492.8125,4.31,0.15,-10.1,3.14,2.71,9.81,0.3125,0.1875,0.0625,-14.75,-36.0,-2.37,198.2,21.6,-178.0
0,7993,0,0.009999999,0.2590332,-450.8125,3.61,0.28,-8.9,3.14,2.71,9.81,-0.3125,-0.125,0.0625,-14.75,-36.0,-2.37,198.2,21.6,-178.0
0,8003,0,0.009999999,0.2590332,-450.8125,3.62,0.37,-9.22,3.14,2.71,9.81,-0.3125,0.3125,-0.1875,-14.75,-36.0,-2.37,198.2,21.6,-178.0
0,8012,0,0.009999999,0.2590332,-450.8125,4.21,0.15,-9.91,3.14,2.71,9.81,0.375,0.4375,0.0,-14.75,-35.56,-2.37,198.2,21.6,-178.0
0,8022,0,0.009999999,0.2590332,-450.8125,3.75,0.16,-9.059999,3.14,2.71,9.81,-0.25,-0.25,0.0625,-14.75,-35.56,-2.37,198.2,21.6,-178.0
0,8033,0,0.009999999,0.2590332,-450.8125,3.53,0.39,-9.059999,3.14,2.71,9.81,-0.4375,0.0,-0.125,-14.75,-35.56,-2.37,198.2,21.6,-178.0
0,8043,0,0.009999999,0.2590332,-450.8125,4.15,0.26,-9.75,3.14,2.71,9.81,0.375,0.3125,-0.0625,-14.75,-35.56,-2.37,198.2,21.6,-178.1
0,8053,0,0.009999999,0.2590332,-450.8125,4.0,0.13,-9.69,3.14,2.71,9.81,0.0625,0.0625,0.125,-14.75,-35.56,-2.37,198.2,21.6,-178.1
0,8062,0,0.009999999,0.2590332,-450.8125,3.41,0.33,-8.34,3.14,2.71,9.81,-0.375,0.0625,-0.125,-15.75,-36.37,-3.25,198.2,21.6,-178.1
0,8073,0,0.009999999,0.2590332,-450.8125,4.06,0.21,-9.54,3.14,2.71,9.81,0.125,0.1875,-0.0625,-15.75,-36.37,-3.25,198.2,21.6,-178.1
0,8083,0,0.009999999,0.2590332,-422.8125,4.14,0.08,-9.9,3.14,2.71,9.81,0.375,0.25,0.125,-15.75,-36.37,-3.25,198.2,21.6,-178.1
0,8093,0,0.009999999,0.2590332,-422.8125,3.37,0.34,-8.32,3.14,2.71,9.81,-0.25,-0.1875,0.0,-15.75,-36.37,-3.25,198.2,21.6,-178.1
0,8103,0,0.009999999,0.2590332,-422.8125,3.23,0.45,-8.84,3.14,2.71,9.81,0.0,0.125,-0.0625,-15.75,-36.37,-3.25,198.2,21.6,-178.1
0,8111,0,0.009999999,0.2023926,-422.8125,4.23,0.15,-10.11,3.14,2.71,9.81,0.3125,0.1875,-0.0625,-15.75,-34.87,-1.56,198.2,21.6,-178.1
0,8122,0,0.009999999,0.2023926,-422.8125,3.58,0.26,-8.73,3.14,2.71,9.81,-0.3125,-0.375,0.0625,-15.75,-34.87,-1.56,198.2,21.6,-178.1
0,8132,0,0.009999999,0.2023926,-422.8125,3.26,0.44,-8.78,3.14,2.71,9.81,-0.3125,-0.1875,0.0,-15.75,-34.87,-1.56,198.2,21.6,-178.1
0,8143,0,0.009999999,0.2023926,-422.8125,4.27,0.12,-9.99,3.14,2.71,9.81,0.4375,0.3125,0.0,-15.75,-34.87,-1.56,198.2,21.6,-178.1
0,8154,0,0.009999999,0.2023926,-422.8125,3.67,0.25,-9.05,3.14,2.71,9.81,-0.0625,0.0,0.1875,-15.75,-34.87,-1.56,198.2,21.6,-178.1
0,8163,0,0.009999999,0.2023926,-422.8125,3.24,0.35,-8.4,3.14,2.71,9.81,-0.5,-0.0625,-0.0625,-15.75,-36.37,-2.87,198.2,21.6,-178.1
0,8173,0,0.009999999,0.2023926,-422.8125,3.54,0.4,-9.01,3.14,2.71,9.81,-0.125,0.25,0.0,-15.75,-36.37,-2.87,198.2,21.6,-178.1
