(data_type, time, state, temperature, alt, ram_diff, bno_x, bno_y, bno_z, high_x, high_y, high_z, gyro_x, gyro_y, gyro_z, mag_x, mag_y, mag_z, heading, roll, pitch)
0,419,0,0.0,0.104248,0.0,1.88,0.64,-9.66,3.14,2.71,9.81,0.0625,-0.0625,0.0,6.0,18.68,12.37,22.1,10.9,-176.0
0,430,0,0.0,0.104248,0.0,1.9,0.68,-9.69,3.14,2.71,9.81,0.0625,0.1875,-0.0625,6.0,18.68,12.37,22.1,10.9,-176.0
0,450,0,0.0,0.104248,0.0,1.87,0.6599999,-9.66,3.14,2.71,9.81,0.0,0.0625,0.0625,5.68,18.68,12.37,22.1,10.9,-176.0
0,468,0,0.0,0.104248,0.0,1.88,0.68,-9.639999,3.14,2.71,9.81,0.0625,0.0625,-0.0625,5.68,18.68,12.37,22.1,10.9,-176.0
0,489,0,0.0,0.104248,0.0,1.88,0.6599999,-9.62,3.14,2.71,9.81,0.0,0.0625,0.0625,5.68,18.68,12.37,22.1,10.9,-176.0
0,507,0,0.0,0.104248,-151.1875,1.87,0.67,-9.62,3.14,2.71,9.81,-0.0625,0.125,0.0,4.56,18.37,12.75,22.1,10.9,-176.0
0,530,0,0.0,0.104248,-151.1875,1.85,0.65,-9.65,3.14,2.71,9.81,-0.0625,0.0,0.125,4.56,18.37,12.75,22.1,10.9,-176.0
0,548,0,0.0,0.104248,-151.1875,1.86,0.64,-9.63,3.14,2.71,9.81,-0.0625,0.125,0.0,4.56,18.37,12.75,22.1,10.9,-176.0
0,564,0,0.0,0.104248,-151.1875,1.87,0.64,-9.63,3.14,2.71,9.81,-0.125,0.1875,-0.125,5.68,19.06,13.18,22.1,10.9,-176.0
0,713,0,0.0,0.1702881,195.8125,1.88,0.6599999,-9.67,3.14,2.71,9.81,-0.0625,0.0625,0.0625,6.0,19.06,13.18,22.1,10.9,-176.0
0,730,0,0.0,0.1702881,195.8125,1.89,0.67,-9.679999,3.14,2.71,9.81,0.0,0.125,0.0625,6.0,19.06,13.18,22.1,10.9,-176.0
0,747,0,0.0,0.1702881,195.8125,1.9,0.67,-9.65,3.14,2.71,9.81,0.0,-0.1875,0.0,6.0,19.06,13.18,22.1,10.9,-176.0
0,762,0,0.0,0.1702881,195.8125,1.89,0.6599999,-9.66,3.14,2.71,9.81,-0.125,0.0625,0.0625,5.68,18.68,12.0,22.1,10.9,-176.0
0,1253,0,-0.02,0.04760742,-3.1875,1.91,0.55,-9.82,3.14,2.71,9.81,0.0625,-0.0625,-0.125,6.0,19.5,13.68,22.1,10.9,-176.0
0,1271,0,-0.02,0.04760742,275.8125,1.95,0.59,-9.849999,3.14,2.71,9.81,-0.125,0.0625,-0.0625,6.0,19.5,13.68,22.1,10.9,-176.0
0,1289,0,-0.02,0.04760742,275.8125,1.81,0.71,-9.48,3.14,2.71,9.81,-0.0625,0.1875,0.0625,6.0,19.5,13.68,22.1,10.9,-176.0
0,1307,0,-0.02,0.1089478,275.8125,1.79,0.78,-9.44,3.14,2.71,9.81,0.0,-0.125,0.0,5.68,18.68,12.0,22.1,10.9,-176.0
0,1368,0,-0.02,0.1655884,393.8125,1.89,0.63,-9.73,3.14,2.71,9.81,-0.25,0.125,-0.0625,6.0,19.06,12.0,22.1,10.9,-176.0
0,1386,0,-0.02,0.1655884,393.8125,1.87,0.7,-9.62,3.14,2.71,9.81,0.0,0.1875,0.0,6.0,19.06,12.0,22.1,10.9,-176.0
0,1431,0,-0.02,0.2269287,393.8125,1.87,0.7,-9.69,3.14,2.71,9.81,-0.0625,-0.125,-0.0625,5.37,18.68,11.5,22.1,10.9,-176.0
0,1455,0,-0.02,0.2269287,66.8125,1.88,0.65,-9.63,3.14,2.71,9.81,0.125,0.1875,-0.0625,6.37,19.06,12.37,22.1,10.9,-176.0
0,1502,0,-0.02,0.2269287,66.8125,1.89,0.6,-9.57,3.14,2.71,9.81,0.125,0.3125,-0.1875,6.37,19.06,12.37,22.1,10.9,-176.0
1,18.0,40.0,14.48639,N,73.0,42.0,20.85251,E,0.0,0.0,0.95,0.0,b'GGA',44.94269,1444.0,20.0
0,1521,0,-0.02,0.2269287,66.8125,1.9,0.62,-9.599999,3.14,2.71,9.81,0.125,-0.0625,-0.0625,6.75,19.06,12.0,22.1,10.9,-176.0
0,1574,0,-0.02,0.1655884,41.8125,1.84,0.68,-10.02,3.14,2.71,9.81,0.0,0.125,-0.0625,6.0,19.06,12.37,22.1,10.9,-176.0
0,1597,0,-0.02,0.1089478,41.8125,2.0,0.54,-10.0,3.14,2.71,9.81,-0.0625,-0.1875,0.0,6.0,19.06,12.37,22.1,10.9,-176.0
0,1645,0,-0.02,0.2269287,121.8125,1.95,0.59,-9.73,3.14,2.71,9.81,-0.1875,-0.125,-0.125,5.68,19.06,12.0,22.1,10.9,-176.0
0,1667,0,-0.02,0.2269287,121.8125,1.84,0.7,-9.49,3.14,2.71,9.81,-0.125,-0.125,-0.0625,6.37,18.68,12.75,22.1,10.9,-176.0
0,1681,0,-0.02,0.2269287,121.8125,1.86,0.65,-9.74,3.14,2.71,9.81,0.0,-0.0625,0.0,6.37,18.68,12.75,22.1,10.9,-176.0
0,1700,0,-0.02,0.2269287,121.8125,1.84,0.69,-9.559999,3.14,2.71,9.81,-0.25,-0.125,0.0,6.37,18.68,12.75,22.1,10.9,-176.0
0,1731,0,-0.02,0.1702881,121.8125,1.86,0.77,-9.599999,3.14,2.71,9.81,-0.125,0.0625,0.0,6.0,18.68,12.37,22.1,10.9,-176.0
0,1748,0,-0.02,0.2269287,159.8125,1.85,0.71,-9.75,3.14,2.71,9.81,0.0,0.125,0.0,6.0,18.68,12.37,22.1,10.9,-176.0
0,1760,0,-0.02,0.2269287,159.8125,1.84,0.6599999,-9.58,3.14,2.71,9.81,0.1875,0.0,0.0625,6.0,19.06,13.18,22.1,10.9,-176.0
0,1770,0,-0.02,0.1702881,159.8125,1.84,0.76,-9.61,3.14,2.71,9.81,0.25,0.0625,0.0,6.0,19.06,13.18,22.1,10.9,-176.0
0,1778,0,-0.02,0.1702881,159.8125,1.84,0.76,-9.61,3.14,2.71,9.81,-0.0625,-0.125,-0.0625,6.0,19.06,13.18,22.1,10.9,-176.0
1,18.0,40.0,14.48639,N,73.0,42.0,20.85251,E,0.0,0.0,0.95,2.0,b'GLL',44.94269,1769.0,8.0
0,1785,0,-0.02,0.1089478,159.8125,1.87,0.6599999,-9.69,3.14,2.71,9.81,-0.0625,-0.125,-0.0625,6.0,19.06,13.18,22.1,10.9,-176.0
0,1794,0,-0.02,0.1089478,159.8125,1.84,0.68,-9.62,3.14,2.71,9.81,0.0625,0.0,0.0,6.0,19.06,13.18,22.1,10.9,-176.0
0,1803,0,-0.02,0.1089478,159.8125,1.88,0.6599999,-9.73,3.14,2.71,9.81,0.0625,-0.125,0.0,6.0,19.06,13.18,22.1,10.9,-176.0
0,1810,0,-0.02,0.1702881,159.8125,1.86,0.65,-9.57,3.14,2.71,9.81,-0.0625,0.0625,-0.125,6.37,19.06,12.0,22.1,10.9,-176.0
0,1817,0,-0.02,0.1702881,159.8125,1.86,0.65,-9.57,3.14,2.71,9.81,-0.1875,-0.1875,0.0,6.37,19.06,12.0,22.1,10.9,-176.0
0,1825,0,-0.02,0.1702881,159.8125,1.85,0.63,-9.599999,3.14,2.71,9.81,-0.1875,-0.1875,0.0,6.37,19.06,12.0,22.1,10.9,-176.0
0,1834,0,-0.02,0.1702881,154.8125,1.88,0.64,-9.599999,3.14,2.71,9.81,0.125,-0.125,-0.0625,6.37,19.06,12.0,22.1,10.9,-176.0
0,1844,0,-0.02,0.1702881,154.8125,1.88,0.61,-9.63,3.14,2.71,9.81,0.0,-0.125,0.0,6.37,19.06,12.0,22.1,10.9,-176.0
0,1854,0,-0.02,0.1702881,154.8125,1.85,0.63,-9.59,3.14,2.71,9.81,0.125,-0.0625,0.0625,6.37,19.06,12.0,22.1,10.9,-176.0
0,1860,0,-0.02,0.1702881,154.8125,1.89,0.59,-9.67,3.14,2.71,9.81,0.0,-0.1875,-0.0625,6.0,19.06,12.75,22.1,10.9,-176.0
0,1867,0,-0.02,0.1702881,154.8125,1.89,0.59,-9.67,3.14,2.71,9.81,0.125,0.125,-0.0625,6.0,19.06,12.75,22.1,10.9,-176.0
0,1890,0,-0.02,0.1702881,154.8125,1.91,0.57,-9.679999,3.14,2.71,9.81,-0.0625,0.125,0.0,6.0,19.06,12.75,22.1,10.9,-176.0
0,1896,0,-0.02,0.1702881,154.8125,1.91,0.57,-9.679999,3.14,2.71,9.81,0.0,0.0625,0.0,6.0,19.06,12.75,22.1,10.9,-176.0
0,1905,0,-0.02,0.1702881,154.8125,1.89,0.62,-9.639999,3.14,2.71,9.81,0.0,0.0625,0.0,6.0,19.06,12.75,22.1,10.9,-176.0
0,1913,0,-0.02,0.1702881,154.8125,1.91,0.61,-9.63,3.14,2.71,9.81,0.0,-0.0625,-0.0625,5.37,19.5,11.5,22.1,10.9,-176.0
0,1924,0,-0.02,0.1702881,154.8125,1.92,0.62,-9.639999,3.14,2.71,9.81,0.0625,0.1875,0.0,5.37,19.5,11.5,22.1,10.9,-176.0
0,1934,0,-0.02,0.1089478,400.8125,1.96,0.59,-9.73,3.14,2.71,9.81,0.0,0.1875,-0.125,5.37,19.5,11.5,22.1,10.9,-176.0
0,1944,0,-0.02,0.1089478,400.8125,1.91,0.61,-9.7,3.14,2.71,9.81,0.0625,0.0625,0.0,5.37,19.5,11.5,22.1,10.9,-176.0
0,1954,0,-0.02,0.1089478,400.8125,1.91,0.57,-9.65,3.14,2.71,9.81,0.0,0.0625,0.0625,5.37,19.5,11.5,22.1,10.9,-176.0
0,1962,0,-0.02,0.04760742,400.8125,1.9,0.68,-9.679999,3.14,2.71,9.81,0.0625,0.0,0.0625,5.0,18.68,12.0,22.1,10.9,-176.0
0,1971,0,-0.02,0.04760742,400.8125,1.92,0.64,-9.63,3.14,2.71,9.81,0.0,-0.1875,-0.0625,5.0,18.68,12.0,22.1,10.9,-176.0
0,1979,0,-0.02,0.04760742,400.8125,1.92,0.67,-9.67,3.14,2.71,9.81,-0.0625,0.125,0.0625,5.0,18.68,12.0,22.1,10.9,-176.0
0,1986,0,-0.02,0.04760742,400.8125,1.92,0.67,-9.67,3.14,2.71,9.81,-0.0625,0.125,0.0625,5.0,18.68,12.0,22.1,10.9,-176.0
0,1995,0,-0.02,0.04760742,400.8125,1.89,0.68,-9.679999,3.14,2.71,9.81,-0.1875,0.0,0.0625,5.0,18.68,12.0,22.1,10.9,-176.0
0,2004,0,-0.02,0.04760742,400.8125,1.86,0.65,-9.679999,3.14,2.71,9.81,-0.125,0.0,0.0625,5.0,18.68,12.0,22.1,10.9,-176.0
0,2011,0,-0.04,0.1089478,400.8125,1.9,0.65,-9.66,3.14,2.71,9.81,-0.0625,0.0,-0.0625,6.0,19.5,12.75,22.1,10.9,-176.0
0,2019,0,-0.04,0.1089478,400.8125,1.9,0.68,-9.679999,3.14,2.71,9.81,-0.1875,-0.25,0.0625,6.0,19.5,12.75,22.1,10.9,-176.0
0,2026,0,-0.04,0.1089478,619.8125,1.9,0.68,-9.679999,3.14,2.71,9.81,-0.1875,-0.25,0.0625,6.0,19.5,12.75,22.1,10.9,-176.0
0,2035,0,-0.04,0.1089478,619.8125,1.87,0.68,-9.599999,3.14,2.71,9.81,0.0,0.0,-0.0625,6.0,19.5,12.75,22.1,10.9,-176.0
0,2045,0,-0.04,0.1089478,619.8125,1.87,0.68,-9.679999,3.14,2.71,9.81,-0.125,-0.0625,0.0625,6.0,19.5,12.75,22.1,10.9,-176.0
0,2054,0,-0.04,0.1089478,619.8125,1.87,0.67,-9.599999,3.14,2.71,9.81,0.0625,0.0625,0.0,6.0,19.5,12.75,22.1,10.9,-176.0
0,2061,0,-0.04,0.1089478,619.8125,1.86,0.67,-9.59,3.14,2.71,9.81,-0.1875,0.125,-0.125,5.37,19.06,12.0,22.1,10.9,-176.0
0,2068,0,-0.04,0.1089478,619.8125,1.86,0.67,-9.59,3.14,2.71,9.81,0.125,-0.0625,-0.125,5.37,19.06,12.0,22.1,10.9,-176.0
0,2076,0,-0.04,0.1089478,619.8125,1.88,0.72,-9.67,3.14,2.71,9.81,0.125,-0.0625,-0.125,5.37,19.06,12.0,22.1,10.9,-176.0
0,2085,0,-0.04,0.1089478,619.8125,1.87,0.65,-9.58,3.14,2.71,9.81,0.0,-0.0625,-0.125,5.37,19.06,12.0,22.1,10.9,-176.0
0,2094,0,-0.04,0.1089478,619.8125,1.89,0.64,-9.66,3.14,2.71,9.81,0.0,0.0,-0.125,5.37,19.06,12.0,22.1,10.9,-176.0
0,2105,0,-0.04,0.1089478,619.8125,1.87,0.72,-9.61,3.14,2.71,9.81,0.0,0.25,-0.0625,5.37,19.06,12.0,22.1,10.9,-176.0
0,2228,0,-0.04,0.1702881,889.8125,1.94,0.6,-9.82,3.14,2.71,9.81,0.0625,-0.25,-0.0625,5.68,17.56,12.0,22.1,10.9,-176.0
0,2254,0,-0.04,0.1702881,889.8125,2.02,0.6,-9.52,3.14,2.71,9.81,0.0,-0.25,0.0,5.68,17.56,12.0,22.1,10.9,-176.0
0,2268,0,-0.04,0.1702881,889.8125,1.88,0.63,-9.42,3.14,2.71,9.81,-0.125,0.0625,0.0625,-4.25,-34.75,35.5,22.1,10.9,-176.0
0,2289,0,-0.04,0.1702881,889.8125,1.8,0.63,-9.9,3.14,2.71,9.81,-0.0625,0.25,-0.125,-4.25,-34.75,35.5,22.1,10.9,-176.0
0,2309,0,-0.04,0.1089478,889.8125,1.81,0.61,-9.77,3.14,2.71,9.81,-0.0625,0.125,-0.0625,-1.56,-16.0,29.0,22.1,10.9,-176.0
0,2369,0,-0.04,0.1089478,1394.813,1.92,0.68,-9.71,3.14,2.71,9.81,-0.1875,-0.0625,0.0625,0.87,-11.87,29.5,22.1,10.9,-176.0
1,18.0,40.0,14.48456,N,73.0,42.0,20.8429,E,0.007716,0.0,0.95,2.0,b'ROV',44.94269,2302.0,15.0
0,2388,0,-0.04,0.1089478,1116.813,1.8,0.65,-9.75,3.14,2.71,9.81,-0.125,0.0,-0.0625,0.87,-11.87,29.5,22.1,10.9,-176.0
0,2431,0,-0.04,0.04760742,1116.813,1.9,0.7,-9.58,3.14,2.71,9.81,-0.0625,0.25,-0.1875,-1.0,-9.25,29.5,22.1,10.9,-176.0
1,18.0,40.0,14.48456,N,73.0,42.0,20.8429,E,0.007716,0.0,0.95,2.0,b'VNC',44.94269,2302.0,112.0
0,2451,0,-0.04,0.1089478,1116.813,1.88,0.68,-9.92,3.14,2.71,9.81,0.0,0.125,0.125,-1.0,-9.25,29.5,22.1,10.9,-176.0
0,2502,0,-0.04,0.04760742,590.8125,1.94,0.68,-9.54,3.14,2.71,9.81,-0.125,0.0625,0.0,1.25,-3.06,28.18,22.1,10.9,-176.0
1,18.0,40.0,14.48456,N,73.0,42.0,20.8429,E,0.007716,0.0,0.95,2.0,b'GGA',45.6427,2440.0,18.0
0,2522,0,-0.04,0.04760742,590.8125,1.98,0.79,-9.86,3.14,2.71,9.81,-0.0625,0.0,0.0,0.87,-3.37,27.25,22.1,10.9,-176.0
0,2575,0,-0.04,0.1089478,590.8125,1.85,0.6599999,-9.679999,3.14,2.71,9.81,0.1875,-0.0625,-0.0625,1.68,-7.5,27.25,22.1,10.9,-176.0
0,2598,0,-0.04,0.1089478,256.8125,2.02,0.71,-9.61,3.14,2.71,9.81,0.3125,-0.125,0.0,1.68,-7.5,27.25,22.1,10.9,-176.0
0,2645,0,-0.04,0.1089478,256.8125,1.75,0.4,-9.29,3.14,2.71,9.81,-0.3125,0.0,0.0625,0.18,-8.56,26.5,22.1,10.9,-176.0
0,2669,0,-0.04,0.1089478,256.8125,1.44,0.56,-10.1,3.14,2.71,9.81,-0.1875,0.8125,-0.1875,1.25,-2.68,26.5,22.1,10.9,-176.0
0,2684,0,-0.04,0.1089478,256.8125,1.9,0.74,-10.27,3.14,2.71,9.81,0.0,0.125,-0.0625,1.25,-2.68,26.5,22.1,10.9,-176.0
0,2704,0,-0.04,0.1089478,29.8125,2.09,0.67,-9.559999,3.14,2.71,9.81,0.25,0.125,-0.25,1.25,-2.68,26.5,22.1,10.9,-176.0
0,2732,0,-0.04,0.1089478,29.8125,2.16,0.58,-9.74,3.14,2.71,9.81,-0.1875,-0.25,0.0,2.0,-0.06,25.18,22.1,10.9,-176.0
0,2747,0,-0.04,0.04760742,29.8125,2.01,0.69,-9.69,3.14,2.71,9.81,0.0625,-0.4375,0.0625,2.0,-0.06,25.18,22.1,10.9,-176.0
0,2761,0,-0.04,0.04760742,29.8125,1.93,0.54,-10.11,3.14,2.71,9.81,0.0625,-0.5,0.125,0.5,-6.37,28.18,22.1,10.9,-176.0
0,2772,0,-0.04,0.04760742,29.8125,1.68,0.79,-9.92,3.14,2.71,9.81,0.125,-0.625,0.0625,0.5,-6.37,28.18,22.1,10.9,-176.0
0,2780,0,-0.04,0.04760742,29.8125,1.78,0.7,-9.76,3.14,2.71,9.81,0.1875,-0.5,0.0,0.5,-6.37,28.18,22.1,10.9,-176.0
1,18.0,40.0,14.48456,N,73.0,42.0,20.8429,E,0.007716,0.0,0.95,2.0,b'GLL',45.6427,2771.0,9.0
0,2789,0,-0.04,0.04760742,41.8125,1.82,0.69,-9.58,3.14,2.71,9.81,0.1875,-0.5,0.0,0.5,-6.37,28.18,22.1,10.9,-176.0
0,2798,0,-0.04,0.04760742,41.8125,1.75,0.52,-9.099999,3.14,2.71,9.81,0.0625,-0.1875,0.0,0.5,-6.37,28.18,22.1,10.9,-176.0
0,2808,0,-0.04,0.04760742,41.8125,1.56,0.6,-8.99,3.14,2.71,9.81,-0.4375,-0.0625,0.0625,0.5,-6.37,28.18,22.1,10.9,-176.0
0,2817,0,-0.04,0.04760742,41.8125,1.51,0.7,-9.3,3.14,2.71,9.81,-0.5,0.25,-0.125,1.68,-1.87,25.18,22.1,11.0,-176.0
0,2827,0,-0.04,0.04760742,41.8125,1.68,0.6599999,-9.889999,3.14,2.71,9.81,-0.4375,0.75,-0.1875,1.68,-1.87,25.18,22.1,11.0,-176.0
0,2837,0,-0.04,0.04760742,41.8125,1.95,0.68,-10.58,3.14,2.71,9.81,-0.25,0.75,-0.1875,1.68,-1.87,25.18,22.1,11.0,-176.0
0,2848,0,-0.04,0.04760742,41.8125,1.95,0.7,-10.28,3.14,2.71,9.81,-0.25,0.5,-0.125,1.68,-1.87,25.18,22.1,11.0,-176.0
0,2858,0,-0.04,0.04760742,41.8125,1.85,0.65,-9.92,3.14,2.71,9.81,-0.4375,0.625,-0.125,1.68,-1.87,25.18,22.1,11.0,-176.0
0,2867,0,-0.04,0.04760742,41.8125,1.84,0.73,-8.97,3.14,2.71,9.81,-0.125,0.5625,-0.125,2.37,0.56,26.0,22.1,11.0,-176.0
0,2877,0,-0.04,-0.01373291,242.8125,1.9,0.68,-9.179999,3.14,2.71,9.81,-0.0625,0.25,-0.1875,2.37,0.56,26.0,22.1,11.0,-176.0
0,2888,0,-0.04,-0.01373291,242.8125,2.2,0.75,-9.34,3.14,2.71,9.81,0.0,0.0625,-0.125,2.37,0.56,26.0,22.1,11.0,-176.0
0,2897,0,-0.04,-0.01373291,242.8125,2.26,0.67,-9.849999,3.14,2.71,9.81,0.125,0.0,0.0,2.37,0.56,26.0,22.1,11.0,-176.0
0,2908,0,-0.04,-0.01373291,242.8125,1.99,0.68,-9.86,3.14,2.71,9.81,0.0625,-0.4375,0.0,2.37,0.56,26.0,22.1,11.0,-176.0
0,2914,0,-0.06,0.04760742,242.8125,2.06,0.75,-9.82,3.14,2.71,9.81,0.3125,-0.875,-0.0625,0.87,-3.37,26.87,22.1,11.0,-176.0
0,2923,0,-0.06,0.04760742,242.8125,2.16,0.82,-9.679999,3.14,2.71,9.81,0.375,-1.25,0.0,0.87,-3.37,26.87,22.1,10.9,-176.0
0,2929,0,-0.06,0.04760742,242.8125,2.16,0.82,-9.679999,3.14,2.71,9.81,0.375,-1.25,0.0,0.87,-3.37,26.87,22.1,10.9,-176.0
0,2938,0,-0.06,0.04760742,242.8125,2.56,0.8,-9.49,3.14,2.71,9.81,0.4375,-1.0,0.0625,0.87,-3.37,26.87,22.1,10.9,-176.0
0,2948,0,-0.06,0.1089478,242.8125,2.32,0.7,-9.12,3.14,2.71,9.81,0.25,-0.8125,0.25,0.87,-3.37,26.87,22.1,10.9,-176.0
0,2958,0,-0.06,0.04760742,242.8125,1.69,0.25,-8.67,3.14,2.71,9.81,0.0625,-0.125,0.4375,0.87,-3.37,26.87,22.1,10.9,-176.0
0,2967,0,-0.06,0.04760742,242.8125,0.9599999,-0.02,-8.12,3.14,2.71,9.81,-0.875,0.3125,0.375,3.87,3.18,19.18,22.1,10.9,-176.0
0,2978,0,-0.06,0.04760742,533.8125,0.76,0.9799999,-11.19,3.14,2.71,9.81,-1.4375,1.0,-0.125,3.87,3.18,19.18,22.1,10.9,-176.0
0,2988,0,-0.06,0.04760742,533.8125,1.45,0.65,-13.06,3.14,2.71,9.81,0.5625,1.25,-0.1875,3.87,3.18,19.18,22.1,11.0,-176.0
0,2998,0,-0.06,-0.01373291,533.8125,2.09,0.15,-12.55,3.14,2.71,9.81,1.125,0.75,-0.0625,3.87,3.18,19.18,22.1,11.0,-176.0
0,3008,0,-0.06,-0.01373291,533.8125,1.86,0.9,-8.65,3.14,2.71,9.81,-0.4375,-0.25,-0.3125,3.87,3.18,19.18,22.1,11.0,-176.0
0,3016,0,-0.06,-0.0703125,533.8125,2.49,0.9599999,-8.36,3.14,2.71,9.81,0.5,-0.3125,-0.5625,4.56,4.68,19.68,22.1,11.0,-176.0
0,3027,0,-0.06,-0.0703125,533.8125,3.15,0.88,-8.3,3.14,2.71,9.81,0.75,-0.625,-0.5,4.56,4.68,19.68,22.1,10.9,-176.0
0,3037,0,-0.06,-0.0703125,533.8125,3.06,1.29,-7.69,3.14,2.71,9.81,-0.4375,-0.375,-0.25,4.56,4.68,19.68,22.1,10.9,-176.0
0,3063,0,-0.06,-0.1364136,533.8125,1.2,0.27,-10.03,3.14,2.71,9.81,-0.9375,0.0625,0.6875,5.37,7.25,18.75,22.1,10.9,-176.0
0,3070,0,-0.06,-0.1364136,829.8125,1.2,0.27,-10.03,3.14,2.71,9.81,-0.9375,0.0625,0.6875,5.37,7.25,18.75,22.1,10.9,-176.0
0,3079,0,-0.06,-0.1364136,829.8125,0.76,0.52,-11.42,3.14,2.71,9.81,-0.1875,-0.0625,0.4375,5.37,7.25,18.75,22.1,10.9,-176.0
0,3089,0,-0.06,-0.1364136,829.8125,0.84,0.74,-10.9,3.14,2.71,9.81,-0.0625,0.125,-0.0625,5.37,7.25,18.75,22.1,10.9,-176.0
0,3099,0,-0.06,-0.1364136,829.8125,1.0,0.38,-10.22,3.14,2.71,9.81,0.125,-0.375,-0.125,5.37,7.25,18.75,22.1,10.9,-176.0
0,3109,0,-0.06,-0.1364136,829.8125,1.1,0.62,-9.55,3.14,2.71,9.81,0.8125,-1.0,-0.4375,5.37,7.25,18.75,22.1,10.9,-176.0
0,3116,0,-0.06,-0.1364136,829.8125,2.54,0.8599999,-8.77,3.14,2.71,9.81,0.625,-1.1875,-0.4375,5.0,8.75,16.68,22.1,10.9,-176.0
0,3125,0,-0.06,-0.1364136,829.8125,2.95,1.05,-8.58,3.14,2.71,9.81,0.3125,-0.4375,-0.5,5.0,8.75,16.68,22.1,10.9,-176.0
0,3132,0,-0.06,-0.1364136,829.8125,2.95,1.05,-8.58,3.14,2.71,9.81,-0.3125,0.25,-0.3125,5.0,8.75,16.68,22.1,10.9,-176.0
0,3140,0,-0.06,-0.1929932,829.8125,3.08,1.02,-8.559999,3.14,2.71,9.81,-0.3125,0.25,-0.3125,5.0,8.75,16.68,22.1,10.9,-176.0
0,3149,0,-0.06,-0.1929932,829.8125,2.28,0.4,-10.4,3.14,2.71,9.81,-0.5625,0.4375,0.0,5.0,8.75,16.68,22.1,10.9,-176.0
0,3268,0,-0.06,-0.0703125,1143.813,1.52,0.65,-8.91,3.14,2.71,9.81,-0.0625,-0.0625,0.125,7.18,16.87,9.0,22.1,10.9,-176.0
0,3281,0,-0.06,-0.0703125,1143.813,1.84,0.69,-9.24,3.14,2.71,9.81,0.375,0.1875,0.0625,7.18,16.87,9.0,22.1,10.9,-176.0
0,3298,0,-0.06,-0.1364136,1143.813,1.74,0.76,-8.34,3.14,2.71,9.81,-0.3125,-0.3125,0.125,7.18,16.87,9.0,22.1,10.9,-176.0
0,3315,0,-0.06,-0.1364136,1143.813,1.81,0.48,-10.37,3.14,2.71,9.81,0.125,0.125,-0.0625,7.5,17.56,9.0,22.1,10.9,-176.0
0,3334,0,-0.06,-0.01373291,1143.813,1.39,1.08,-9.95,3.14,2.71,9.81,-0.6875,0.3125,-0.0625,7.5,17.56,9.0,22.1,10.9,-176.0
0,3369,0,-0.06,-0.0703125,1526.813,1.75,0.77,-9.22,3.14,2.71,9.81,-0.25,0.125,-0.25,7.87,17.56,9.37,22.1,10.9,-176.0
1,18.0,40.0,14.4809,N,73.0,42.0,20.83923,E,0.0375512,0.0,0.95,2.0,b'ROV',45.6427,3327.0,14.0
0,3391,0,-0.06,-0.0703125,1526.813,1.96,0.64,-8.78,3.14,2.71,9.81,-0.1875,0.0,-0.125,7.87,17.56,9.37,22.1,10.9,-176.0
0,3431,0,-0.06,-0.01373291,1526.813,1.58,0.79,-9.94,3.14,2.71,9.81,-0.25,0.0,-0.125,7.5,17.25,8.5,22.1,10.9,-176.0
1,18.0,40.0,14.4809,N,73.0,42.0,20.83923,E,0.0375512,0.0,0.95,2.0,b'VNC',45.6427,3327.0,74.0
0,3454,0,-0.06,-0.0703125,1063.813,1.6,0.84,-9.36,3.14,2.71,9.81,0.125,0.3125,-0.0625,7.5,17.25,8.5,22.1,10.9,-176.0
0,3502,0,-0.06,-0.1316528,1063.813,2.16,0.62,-10.08,3.14,2.71,9.81,-0.0625,0.0,0.0625,8.25,17.25,10.68,22.1,10.9,-176.0
1,18.0,40.0,14.4809,N,73.0,42.0,20.83923,E,0.0375512,0.0,0.95,2.0,b'GGA',46.1427,3443.0,20.0
0,3524,0,-0.06,-0.1316528,1063.813,2.06,0.34,-9.63,3.14,2.71,9.81,-0.25,-0.0625,0.0,8.25,18.0,10.18,22.1,10.9,-176.0
0,3574,0,-0.06,-0.1316528,733.8125,1.85,0.79,-9.76,3.14,2.71,9.81,0.3125,0.1875,0.125,8.25,17.25,10.68,22.1,10.9,-176.0
0,3595,0,-0.06,-0.0703125,733.8125,1.93,0.4,-9.82,3.14,2.71,9.81,0.125,0.0625,0.0,8.25,17.25,10.68,22.1,10.9,-176.0
0,3645,0,-0.06,-0.0703125,613.8125,1.85,0.82,-9.57,3.14,2.71,9.81,-0.5,0.125,-0.25,8.68,17.56,9.75,22.1,10.9,-176.0
0,3665,0,-0.06,-0.1316528,613.8125,1.68,1.03,-9.36,3.14,2.71,9.81,-0.4375,-0.1875,0.0625,7.87,18.0,9.37,22.1,10.9,-176.0
0,3691,0,-0.06,-0.1316528,613.8125,1.85,0.68,-9.49,3.14,2.71,9.81,0.5625,0.0625,-0.0625,7.87,18.0,9.37,22.1,10.9,-176.0
0,3711,0,-0.06,-0.0703125,613.8125,1.88,0.53,-9.84,3.14,2.71,9.81,-0.125,0.1875,-0.125,7.87,18.0,9.37,22.1,10.9,-176.0
0,3746,0,-0.06,-0.0703125,234.8125,1.73,1.09,-9.059999,3.14,2.71,9.81,0.0625,0.125,0.125,8.68,17.56,11.06,22.1,10.9,-176.0
0,3761,0,-0.06,-0.0703125,234.8125,1.79,0.76,-9.65,3.14,2.71,9.81,-0.625,-0.1875,-0.1875,8.68,17.56,11.06,22.1,10.9,-176.0
0,3774,0,-0.06,-0.0703125,234.8125,2.14,0.17,-10.32,3.14,2.71,9.81,-0.0625,-0.1875,0.1875,8.25,18.68,10.68,22.1,10.9,-176.0
0,3785,0,-0.06,-0.0703125,234.8125,1.84,0.89,-9.46,3.14,2.71,9.81,-0.4375,0.0,-0.125,8.25,18.68,10.68,22.1,10.9,-176.0
0,3794,0,-0.06,-0.0703125,234.8125,1.89,0.48,-10.02,3.14,2.71,9.81,0.6875,0.1875,0.0,8.25,18.68,10.68,22.1,10.9,-176.0
1,18.0,40.0,14.4809,N,73.0,42.0,20.83923,E,0.0375512,0.0,0.95,2.0,b'GLL',46.1427,3785.0,8.0
0,3803,0,-0.06,-0.1316528,234.8125,2.11,0.3,-10.13,3.14,2.71,9.81,0.6875,0.1875,0.0,8.25,18.68,10.68,22.1,10.9,-176.0
0,3827,0,-0.06,-0.1316528,234.8125,2.07,0.58,-9.73,3.14,2.71,9.81,0.6875,0.375,0.125,7.87,17.56,12.0,22.1,10.9,-176.0
0,3833,0,-0.06,-0.1316528,110.8125,2.07,0.58,-9.73,3.14,2.71,9.81,0.6875,0.375,0.125,7.87,17.56,12.0,22.1,10.9,-176.0
0,3843,0,-0.06,-0.0703125,110.8125,1.76,0.97,-8.98,3.14,2.71,9.81,-0.5625,-0.0625,0.0625,7.87,17.56,12.0,22.1,10.9,-176.0
0,3852,0,-0.06,-0.1316528,110.8125,1.84,0.75,-9.639999,3.14,2.71,9.81,-0.3125,0.125,-0.0625,7.87,17.56,12.0,22.1,10.9,-176.0
0,3862,0,-0.06,-0.1316528,110.8125,1.92,0.82,-9.349999,3.14,2.71,9.81,0.5625,0.125,0.0625,7.87,17.56,12.0,22.1,10.9,-176.0
0,3871,0,-0.06,-0.1316528,110.8125,1.58,0.94,-9.02,3.14,2.71,9.81,-0.5625,0.0,0.0625,7.87,18.0,10.68,22.1,10.9,-176.0
0,3881,0,-0.06,-0.1316528,110.8125,1.8,0.65,-9.92,3.14,2.71,9.81,0.0,0.1875,-0.1875,7.87,18.0,10.68,22.1,10.9,-176.0
0,3892,0,-0.06,-0.1316528,110.8125,1.85,0.89,-9.24,3.14,2.71,9.81,0.6875,0.25,0.0625,7.87,18.0,10.68,22.1,10.9,-176.0
0,3901,0,-0.06,-0.1316528,110.8125,1.54,0.93,-9.19,3.14,2.71,9.81,-0.6875,-0.3125,0.0,7.87,18.0,10.68,22.1,10.9,-176.0
0,3912,0,-0.06,-0.1316528,110.8125,1.89,0.48,-10.04,3.14,2.71,9.81,-0.0625,-0.0625,0.0,7.87,18.0,10.68,22.1,10.9,-176.0
0,3920,0,-0.06,-0.1929932,110.8125,2.11,0.36,-10.12,3.14,2.71,9.81,0.625,0.0625,-0.0625,8.25,16.87,11.5,22.1,10.9,-176.0
0,3930,0,-0.06,-0.1929932,256.8125,1.61,0.95,-9.3,3.14,2.71,9.81,-0.8125,-0.3125,-0.0625,8.25,16.87,11.5,22.1,10.9,-176.0
0,3942,0,-0.06,-0.1929932,256.8125,2.18,0.23,-10.61,3.14,2.71,9.81,0.0625,0.0,-0.25,8.25,16.87,11.5,22.1,10.9,-176.0
0,3952,0,-0.06,-0.1929932,256.8125,2.16,0.59,-9.889999,3.14,2.71,9.81,0.5,0.1875,0.0625,8.25,16.87,11.5,22.1,10.9,-176.0
0,3962,0,-0.06,-0.1929932,256.8125,1.67,0.85,-9.4,3.14,2.71,9.81,-1.0625,0.0625,-0.1875,8.25,16.87,11.5,22.1,10.9,-176.0
0,3971,0,-0.06,-0.1929932,256.8125,2.25,0.04,-10.63,3.14,2.71,9.81,0.25,0.125,-0.125,8.25,18.37,11.5,22.1,10.9,-176.0
0,3982,0,-0.06,-0.1929932,256.8125,2.02,0.73,-9.51,3.14,2.71,9.81,0.625,0.0625,0.1875,8.25,18.37,11.5,22.1,10.9,-176.0
0,3992,0,-0.06,-0.1929932,256.8125,1.49,1.03,-8.809999,3.14,2.71,9.81,-1.1875,-0.0625,-0.0625,8.25,18.37,11.5,22.1,10.9,-176.0
0,4002,0,-0.06,-0.1929932,256.8125,2.26,0.12,-10.73,3.14,2.71,9.81,0.125,0.3125,0.0,8.25,18.37,11.5,22.1,10.9,-176.0
0,4012,0,-0.06,-0.1929932,256.8125,1.94,0.87,-9.29,3.14,2.71,9.81,0.6875,-0.125,0.125,8.25,18.37,11.5,22.1,10.9,-176.0
0,4020,0,-0.06,-0.1929932,371.8125,1.48,1.02,-8.9,3.14,2.71,9.81,-0.8125,-0.25,-0.125,8.68,17.56,11.06,22.1,10.9,-176.0
0,4032,0,-0.06,-0.1929932,371.8125,2.26,0.21,-10.52,3.14,2.71,9.81,0.3125,0.0625,-0.0625,8.68,17.56,11.06,22.1,10.9,-176.0
0,4042,0,-0.06,-0.1929932,371.8125,1.79,0.88,-8.88,3.14,2.71,9.81,0.5,0.1875,0.125,8.68,17.56,11.06,22.1,10.9,-176.0
0,4052,0,-0.06,-0.1316528,371.8125,1.49,1.05,-8.95,3.14,2.71,9.81,-1.125,-0.25,0.0,8.68,17.56,11.06,22.1,10.9,-176.0
0,4062,0,-0.06,-0.1316528,371.8125,2.01,0.47,-10.35,3.14,2.71,9.81,0.3125,0.0625,-0.1875,8.68,17.56,11.06,22.1,10.9,-176.0
0,4071,0,-0.06,-0.1316528,371.8125,1.73,0.95,-8.67,3.14,2.71,9.81,0.5625,0.1875,0.0625,7.87,18.0,11.5,22.1,10.9,-176.0
0,4082,0,-0.06,-0.1316528,371.8125,1.46,1.08,-9.09,3.14,2.71,9.81,-1.0625,0.0625,-0.1875,7.87,18.0,11.5,22.1,10.9,-176.0
0,4092,0,-0.06,-0.1316528,371.8125,2.13,0.24,-10.71,3.14,2.71,9.81,0.25,0.1875,0.0,7.87,18.0,11.5,22.1,10.9,-176.0
0,4102,0,-0.06,-0.1316528,371.8125,1.54,0.97,-8.51,3.14,2.71,9.81,0.625,0.25,0.1875,7.87,18.0,11.5,22.1,10.9,-176.0
0,4113,0,-0.06,-0.1316528,371.8125,1.53,0.99,-9.24,3.14,2.71,9.81,-1.125,-0.0625,-0.125,7.87,18.0,11.5,22.1,10.9,-176.0
0,4121,0,-0.06,-0.1316528,740.8125,2.24,0.22,-10.82,3.14,2.71,9.81,0.25,0.4375,-0.125,8.68,18.68,11.5,22.1,10.9,-176.0
0,4132,0,-0.06,-0.0703125,740.8125,2.18,0.54,-9.96,3.14,2.71,9.81,0.8125,-0.125,0.1875,8.68,18.68,11.5,22.1,10.9,-176.0
0,4142,0,-0.06,-0.0703125,740.8125,1.64,0.83,-9.58,3.14,2.71,9.81,-1.125,-0.1875,-0.0625,8.68,18.68,11.5,22.1,10.9,-176.0
0,4152,0,-0.06,-0.0703125,740.8125,2.27,0.18,-10.77,3.14,2.71,9.81,0.3125,0.1875,-0.0625,8.68,18.68,11.5,22.1,10.9,-176.0
0,4163,0,-0.06,-0.0703125,740.8125,2.12,0.58,-9.639999,3.14,2.71,9.81,0.6875,0.375,-0.0625,8.68,18.68,11.5,22.1,10.9,-176.0
0,4172,0,-0.06,-0.0703125,740.8125,1.68,0.84,-9.639999,3.14,2.71,9.81,-1.0625,-0.1875,0.0,8.25,17.56,11.06,22.1,10.9,-176.0
0,4183,0,-0.06,-0.0703125,740.8125,2.34,0.15,-10.88,3.14,2.71,9.81,0.125,0.125,-0.1875,8.25,17.56,11.06,22.1,10.9,-176.0
0,4305,0,-0.06,-0.1316528,743.8125,1.86,0.74,-10.01,3.14,2.71,9.81,-0.375,0.125,-0.125,8.25,19.75,10.68,22.1,10.9,-176.0
0,4338,0,-0.06,-0.1316528,743.8125,1.85,0.69,-9.969999,3.14,2.71,9.81,0.6875,0.25,-0.1875,8.25,19.06,9.75,22.1,10.9,-176.0
0,4351,0,-0.06,-0.1316528,743.8125,1.34,0.9599999,-8.679999,3.14,2.71,9.81,-0.25,0.0,0.0625,8.25,19.06,9.75,22.1,10.9,-176.0
0,4374,0,-0.06,-0.0703125,743.8125,2.38,0.31,-10.66,3.14,2.71,9.81,0.25,-0.1875,0.0625,8.68,20.56,8.87,22.1,10.9,-176.0
0,4390,0,-0.06,-0.1316528,743.8125,1.79,0.73,-9.96,3.14,2.71,9.81,-0.75,-0.375,-0.0625,8.68,20.56,8.87,22.1,10.9,-175.9
1,18.0,40.0,14.48341,N,73.0,42.0,20.85365,E,0.1286,0.0,0.95,2.0,b'ROV',46.1427,4367.0,17.0
0,4409,0,-0.06,-0.1316528,795.8125,1.97,0.69,-9.34,3.14,2.71,9.81,0.125,0.3125,0.0625,8.68,20.56,8.87,22.1,10.9,-175.9
0,4428,0,-0.06,-0.1316528,795.8125,1.87,0.73,-9.969999,3.14,2.71,9.81,0.4375,0.0,0.0625,8.68,21.0,8.06,22.1,10.9,-175.9
1,18.0,40.0,14.48341,N,73.0,42.0,20.85365,E,0.1286,0.0,0.95,2.0,b'VNC',46.1427,4367.0,50.0
0,4449,0,-0.06,-0.1316528,795.8125,1.86,0.72,-10.02,3.14,2.71,9.81,0.125,0.125,-0.125,8.68,21.0,8.06,22.1,10.9,-175.9
0,4498,0,-0.06,-0.1316528,425.8125,2.35,0.29,-10.58,3.14,2.71,9.81,-0.5,-0.1875,0.1875,9.0,21.25,10.68,22.1,10.9,-175.9
1,18.0,40.0,14.48341,N,73.0,42.0,20.85365,E,0.1286,0.0,0.95,2.0,b'GGA',46.44269,4438.0,18.0
0,4519,0,-0.06,-0.1316528,425.8125,2.38,0.31,-10.62,3.14,2.71,9.81,0.625,0.3125,-0.125,8.68,22.37,9.0,22.1,10.9,-175.9
0,4570,0,-0.06,-0.0703125,425.8125,1.35,0.87,-8.57,3.14,2.71,9.81,-0.5,0.0625,-0.125,8.25,21.68,7.68,22.1,10.9,-175.9
0,4592,0,-0.06,-0.0703125,153.8125,2.05,0.53,-9.74,3.14,2.71,9.81,0.1875,-0.0625,0.0,8.25,21.68,7.68,22.1,10.9,-175.9
0,4642,0,-0.06,-0.1316528,153.8125,1.69,0.83,-9.719999,3.14,2.71,9.81,0.125,0.125,-0.0625,9.0,23.87,8.06,22.1,10.9,-175.9
0,4665,0,-0.06,-0.1316528,153.8125,1.34,0.81,-8.33,3.14,2.71,9.81,-0.6875,-0.25,0.0,9.0,23.87,8.06,22.1,10.9,-175.9
0,4688,0,-0.06,-0.1316528,128.8125,2.3,0.44,-10.51,3.14,2.71,9.81,-0.5625,-0.375,0.125,8.25,23.87,9.0,22.1,10.9,-175.9
0,4706,0,-0.06,-0.1316528,128.8125,1.57,0.95,-9.48,3.14,2.71,9.81,-0.375,0.125,-0.0625,8.25,23.87,9.0,22.1,10.9,-175.9
0,4741,0,-0.06,-0.1316528,128.8125,2.25,0.57,-10.48,3.14,2.71,9.81,0.6875,0.375,-0.125,9.0,24.25,9.0,22.1,10.9,-175.9
0,4756,0,-0.06,-0.1316528,128.8125,2.32,0.36,-10.53,3.14,2.71,9.81,0.125,-0.125,0.0625,9.0,24.25,9.0,22.1,10.9,-175.9
0,4770,0,-0.06,-0.1316528,128.8125,2.19,0.57,-10.37,3.14,2.71,9.81,0.4375,0.375,-0.125,8.68,25.0,6.75,22.1,10.9,-175.9
0,4780,0,-0.06,-0.1316528,213.8125,2.19,0.57,-10.37,3.14,2.71,9.81,0.375,-0.1875,0.125,8.68,25.0,6.75,22.1,10.9,-175.9
0,4788,0,-0.06,-0.1316528,213.8125,2.35,0.26,-10.6,3.14,2.71,9.81,-0.8125,-0.1875,0.0,8.68,25.0,6.75,22.1,10.9,-175.9
1,18.0,40.0,14.48341,N,73.0,42.0,20.85365,E,0.1286,0.0,0.95,2.0,b'GLL',46.44269,4779.0,9.0
0,4797,0,-0.06,-0.1316528,213.8125,1.55,0.83,-8.52,3.14,2.71,9.81,-0.8125,-0.1875,0.0,8.68,25.0,6.75,22.1,10.9,-175.9
0,4806,0,-0.06,-0.1316528,213.8125,2.24,0.59,-10.32,3.14,2.71,9.81,0.3125,0.25,-0.125,8.68,25.0,6.75,22.1,10.9,-175.9
0,4815,0,-0.07,-0.0703125,213.8125,2.38,0.3,-10.82,3.14,2.71,9.81,0.5625,0.0,0.125,8.68,25.0,6.75,22.1,10.9,-175.9
0,4822,0,-0.07,-0.0703125,213.8125,1.71,0.68,-8.72,3.14,2.71,9.81,-0.75,-0.375,0.0625,9.0,23.5,8.5,22.1,10.9,-175.9
0,4830,0,-0.07,-0.0703125,213.8125,1.71,0.68,-8.72,3.14,2.71,9.81,-0.0625,0.25,-0.1875,9.0,23.5,8.5,22.1,10.9,-175.9
0,4837,0,-0.07,-0.1316528,213.8125,1.37,1.02,-8.97,3.14,2.71,9.81,-0.0625,0.25,-0.1875,9.0,23.5,8.5,22.1,10.9,-175.9
0,4846,0,-0.07,-0.1316528,213.8125,2.42,0.2,-10.89,3.14,2.71,9.81,0.9375,0.375,0.0625,9.0,23.5,8.5,22.1,10.9,-175.9
0,4856,0,-0.07,-0.1316528,213.8125,1.75,0.65,-8.83,3.14,2.71,9.81,-0.5625,-0.4375,0.0625,9.0,23.5,8.5,22.1,10.9,-175.9
0,4865,0,-0.07,-0.1316528,213.8125,1.33,1.05,-8.66,3.14,2.71,9.81,-0.4375,0.0625,-0.1875,9.0,23.5,8.5,22.1,10.9,-175.9
0,4874,0,-0.07,-0.0703125,206.8125,2.42,0.26,-10.91,3.14,2.71,9.81,0.8125,0.25,0.0,9.37,24.56,7.68,22.1,10.9,-175.9
0,4886,0,-0.07,-0.1316528,206.8125,1.85,0.65,-9.179999,3.14,2.71,9.81,-0.3125,0.0,0.0625,9.37,24.56,7.68,22.1,10.9,-175.9
0,4895,0,-0.07,-0.0703125,206.8125,1.34,0.95,-8.57,3.14,2.71,9.81,-0.75,-0.125,0.0,9.37,24.56,7.68,22.1,10.9,-175.9
0,4905,0,-0.07,-0.0703125,206.8125,1.95,0.8,-9.99,3.14,2.71,9.81,0.75,0.3125,-0.125,9.37,24.56,7.68,22.1,10.9,-175.9
0,4916,0,-0.07,-0.0703125,206.8125,1.9,0.57,-9.34,3.14,2.71,9.81,0.0,0.0625,0.125,9.37,24.56,7.68,22.1,10.9,-175.9
0,4922,0,-0.07,-0.0703125,206.8125,1.32,0.89,-8.44,3.14,2.71,9.81,-0.8125,-0.25,0.0,8.25,25.37,6.75,22.1,10.9,-175.9
0,4930,0,-0.07,-0.0703125,206.8125,1.32,0.89,-8.44,3.14,2.71,9.81,0.375,0.0625,-0.0625,8.25,25.37,6.75,22.1,10.9,-175.9
0,4937,0,-0.07,-0.1316528,206.8125,1.85,0.8599999,-9.82,3.14,2.71,9.81,0.375,0.0625,-0.0625,8.25,25.37,6.75,22.1,10.9,-175.9
0,4946,0,-0.07,-0.1316528,206.8125,1.99,0.54,-9.73,3.14,2.71,9.81,0.375,-0.1875,0.0625,8.25,25.37,6.75,22.1,10.9,-175.9
0,4956,0,-0.07,-0.1316528,206.8125,1.34,0.9099999,-8.38,3.14,2.71,9.81,-1.0,-0.625,0.0625,8.25,25.37,6.75,22.1,10.9,-175.9
0,4966,0,-0.07,-0.0703125,206.8125,1.76,0.89,-9.7,3.14,2.71,9.81,0.25,0.0,-0.125,8.25,25.37,6.75,22.1,10.9,-175.9
0,4975,0,-0.07,-0.0703125,156.8125,2.31,0.33,-10.61,3.14,2.71,9.81,0.75,-0.0625,0.0,8.25,26.5,7.68,22.1,10.9,-175.9
0,5001,0,-0.07,-0.0703125,156.8125,2.27,0.43,-10.6,3.14,2.71,9.81,0.625,0.1875,0.0625,8.25,26.5,7.68,22.1,10.9,-175.9
0,5008,0,-0.07,-0.0703125,156.8125,2.27,0.43,-10.6,3.14,2.71,9.81,0.625,0.1875,0.0625,8.25,26.5,7.68,22.1,10.9,-175.9
0,5017,0,-0.07,-0.0703125,156.8125,1.46,0.79,-8.47,3.14,2.71,9.81,-0.1875,-0.375,0.0625,8.25,26.5,7.68,22.1,10.9,-175.9
0,5026,0,-0.07,-0.0703125,156.8125,1.5,1.01,-9.32,3.14,2.71,9.81,-0.625,-0.125,-0.0625,9.37,26.06,7.18,22.1,10.9,-175.9
0,5036,0,-0.07,-0.0703125,156.8125,2.24,0.46,-10.46,3.14,2.71,9.81,0.6875,0.25,-0.125,9.37,26.06,7.18,22.1,10.9,-175.9
0,5046,0,-0.07,-0.0703125,156.8125,2.17,0.33,-10.5,3.14,2.71,9.81,-0.0625,-0.1875,0.0625,9.37,26.06,7.18,22.1,10.9,-175.9
0,5056,0,-0.07,-0.0703125,156.8125,1.41,1.0,-9.04,3.14,2.71,9.81,-0.75,0.0,-0.1875,9.37,26.06,7.18,22.1,10.9,-175.9
0,5066,0,-0.07,-0.0703125,224.8125,2.11,0.62,-10.23,3.14,2.71,9.81,0.3125,0.375,-0.1875,9.37,26.06,7.18,22.1,10.9,-175.9
0,5076,0,-0.07,-0.0703125,224.8125,2.28,0.33,-10.71,3.14,2.71,9.81,0.25,0.0,0.125,9.0,26.06,7.68,22.1,10.9,-175.9
0,5086,0,-0.07,-0.0703125,224.8125,1.35,1.03,-8.88,3.14,2.71,9.81,-0.8125,-0.25,0.0,9.0,26.06,7.68,22.1,10.9,-175.9
0,5096,0,-0.07,-0.0703125,224.8125,2.06,0.65,-10.2,3.14,2.71,9.81,0.0625,0.375,-0.125,9.0,26.06,7.68,22.1,10.9,-175.9
0,5106,0,-0.07,-0.0703125,224.8125,2.3,0.29,-10.76,3.14,2.71,9.81,0.5,0.125,0.0,9.0,26.06,7.68,22.1,10.9,-175.9
0,5116,0,-0.07,-0.0703125,224.8125,1.73,0.67,-9.09,3.14,2.71,9.81,-0.625,-0.1875,-0.0625,9.0,26.06,7.68,22.1,10.9,-175.9
0,5124,0,-0.07,-0.0703125,224.8125,1.93,0.82,-9.91,3.14,2.71,9.81,-0.125,0.4375,-0.1875,8.25,27.56,7.68,22.1,10.9,-175.9
0,5136,0,-0.07,-0.0703125,224.8125,2.32,0.41,-10.75,3.14,2.71,9.81,0.5625,0.375,-0.125,8.25,27.56,7.68,22.1,10.9,-175.9
0,5146,0,-0.07,-0.0703125,224.8125,1.97,0.57,-9.57,3.14,2.71,9.81,-0.125,0.0,0.125,8.25,27.56,7.68,22.1,10.9,-175.9
0,5156,0,-0.07,-0.0703125,318.8125,1.76,0.95,-9.719999,3.14,2.71,9.81,-0.5625,0.0625,-0.1875,8.25,27.56,7.68,22.1,10.9,-175.9
0,5167,0,-0.07,-0.008972168,318.8125,2.34,0.33,-10.63,3.14,2.71,9.81,0.6875,0.5,0.0,8.25,27.56,7.68,22.1,10.9,-175.9
0,5285,0,-0.09,0.04760742,643.8125,1.44,0.9,-8.94,3.14,2.71,9.81,-0.5,-0.25,-0.0625,8.68,28.68,6.75,22.1,10.9,-175.9
0,5299,0,-0.09,-0.01373291,643.8125,2.36,0.33,-10.68,3.14,2.71,9.81,0.375,0.3125,-0.1875,8.68,28.68,6.75,22.1,10.9,-175.9
0,5316,0,-0.09,-0.01373291,643.8125,1.44,0.89,-8.62,3.14,2.71,9.81,-0.8125,-0.5,-0.0625,8.68,28.68,6.75,22.1,10.9,-175.9
0,5329,0,-0.09,-0.01373291,643.8125,1.85,0.83,-9.55,3.14,2.71,9.81,0.1875,0.0,-0.125,8.25,29.5,4.68,22.1,10.9,-175.9
0,5350,0,-0.09,-0.01373291,1266.813,1.53,0.8,-8.72,3.14,2.71,9.81,-0.5625,-0.375,0.0625,8.25,29.5,4.68,22.1,10.9,-175.9
0,5365,0,-0.09,0.04760742,1266.813,2.19,0.32,-10.28,3.14,2.71,9.81,0.625,0.25,-0.125,8.25,29.5,4.68,22.1,10.9,-175.9
1,18.0,40.0,14.48044,N,73.0,42.0,20.84885,E,0.0787032,0.0,0.95,2.0,b'ROV',46.44269,5342.0,17.0
0,5383,0,-0.09,-0.01373291,1266.813,1.51,0.9099999,-9.13,3.14,2.71,9.81,-0.5,-0.1875,-0.0625,9.37,27.18,7.18,22.1,10.9,-175.9
0,5427,0,-0.09,0.04760742,1266.813,1.99,0.71,-9.94,3.14,2.71,9.81,0.125,0.125,-0.0625,9.0,27.56,5.87,22.1,10.9,-175.9
1,18.0,40.0,14.48044,N,73.0,42.0,20.84885,E,0.0787032,0.0,0.95,2.0,b'VNC',46.44269,5342.0,48.0
0,5451,0,-0.09,0.04760742,835.8125,1.44,0.85,-8.73,3.14,2.71,9.81,0.0,0.0,-0.125,9.0,27.56,5.87,22.1,10.9,-175.9
0,5498,0,-0.09,0.04760742,835.8125,2.27,0.4,-10.51,3.14,2.71,9.81,0.5,0.25,0.0625,9.37,28.0,6.75,22.1,10.9,-175.9
1,18.0,40.0,14.48044,N,73.0,42.0,20.84885,E,0.0787032,0.0,0.95,2.0,b'GGA',46.74268,5440.0,20.0
0,5521,0,-0.09,0.04760742,835.8125,1.5,0.93,-9.13,3.14,2.71,9.81,0.3125,0.3125,-0.1875,8.68,28.25,8.5,22.1,10.9,-175.9
0,5571,0,-0.09,0.04760742,290.8125,2.28,0.31,-10.58,3.14,2.71,9.81,-0.5625,-0.125,0.125,8.25,28.68,6.25,22.1,10.9,-175.9
0,5592,0,-0.09,0.04760742,290.8125,1.94,0.76,-9.88,3.14,2.71,9.81,0.625,0.3125,-0.125,8.25,28.68,6.25,22.1,10.9,-175.9
0,5641,0,-0.09,-0.01373291,246.8125,2.01,0.46,-9.76,3.14,2.71,9.81,0.125,0.0,0.0625,8.68,27.56,7.68,22.1,10.9,-175.9
0,5662,0,-0.09,-0.01373291,246.8125,2.27,0.47,-10.62,3.14,2.71,9.81,0.5,0.125,0.0625,8.68,27.56,7.68,22.1,10.9,-175.9
0,5687,0,-0.09,-0.0703125,246.8125,2.44,0.11,-10.59,3.14,2.71,9.81,-0.0625,0.125,-0.0625,8.68,25.75,7.18,22.1,10.9,-175.9
0,5708,0,-0.09,-0.01373291,146.8125,1.51,0.89,-8.63,3.14,2.71,9.81,-0.6875,-0.5625,0.125,8.25,27.18,6.0,22.1,10.9,-175.9
0,5741,0,-0.09,-0.0703125,146.8125,1.85,0.65,-9.05,3.14,2.71,9.81,-0.625,-0.0625,0.0,8.25,27.18,6.0,22.1,10.9,-175.9
0,5757,0,-0.09,-0.008972168,146.8125,2.36,0.28,-10.68,3.14,2.71,9.81,0.25,0.3125,-0.125,8.25,27.18,6.0,22.1,10.9,-175.9
0,5773,0,-0.09,-0.008972168,146.8125,1.95,0.58,-9.4,3.14,2.71,9.81,-0.8125,-0.25,-0.125,8.68,25.75,7.68,22.1,10.9,-175.8
0,5784,0,-0.09,-0.008972168,146.8125,2.35,0.4,-10.64,3.14,2.71,9.81,0.1875,0.5,-0.125,8.68,25.75,7.68,22.1,10.9,-175.8
0,5792,0,-0.09,-0.008972168,146.8125,2.35,0.4,-10.64,3.14,2.71,9.81,0.4375,0.125,0.0,8.68,25.75,7.68,22.1,10.9,-175.8
1,18.0,40.0,14.48044,N,73.0,42.0,20.84885,E,0.0787032,0.0,0.95,2.0,b'GLL',46.74268,5783.0,8.0
0,5801,0,-0.09,-0.008972168,146.8125,2.1,0.51,-9.78,3.14,2.71,9.81,0.4375,0.125,0.0,8.68,25.75,7.68,22.1,10.9,-175.8
0,5810,0,-0.09,-0.008972168,146.8125,1.45,0.92,-8.65,3.14,2.71,9.81,-0.5625,-0.25,0.0625,8.68,25.75,7.68,22.1,10.9,-175.8
0,5819,0,-0.09,-0.008972168,146.8125,1.75,0.85,-9.62,3.14,2.71,9.81,-0.1875,0.0,-0.125,8.68,25.75,7.68,22.1,10.9,-175.8
0,5827,0,-0.09,-0.008972168,224.8125,2.07,0.53,-10.01,3.14,2.71,9.81,0.5,0.0625,0.0,7.87,26.5,7.18,22.1,10.9,-175.8
0,5839,0,-0.09,-0.008972168,224.8125,1.58,0.77,-8.65,3.14,2.71,9.81,-0.375,-0.1875,0.0,7.87,26.5,7.18,22.1,10.9,-175.8
0,5849,0,-0.09,-0.008972168,224.8125,1.64,0.9099999,-9.4,3.14,2.71,9.81,-0.25,-0.125,0.0,7.87,26.5,7.18,22.1,10.9,-175.8
0,5860,0,-0.09,-0.008972168,224.8125,2.19,0.52,-10.37,3.14,2.71,9.81,0.375,0.0625,-0.0625,7.87,26.5,7.18,22.1,10.9,-175.8
0,5869,0,-0.09,-0.008972168,224.8125,1.6,0.81,-8.76,3.14,2.71,9.81,0.0,0.0,0.0,7.87,26.5,7.18,22.1,10.9,-175.8
0,5878,0,-0.09,-0.008972168,224.8125,1.47,0.95,-9.27,3.14,2.71,9.81,-0.8125,-0.375,-0.0625,7.87,26.5,8.5,22.1,10.9,-175.8
0,5889,0,-0.09,-0.008972168,224.8125,2.18,0.51,-10.23,3.14,2.71,9.81,0.3125,0.125,-0.125,7.87,26.5,8.5,22.1,10.9,-175.8
0,5899,0,-0.09,-0.008972168,224.8125,1.67,0.78,-8.98,3.14,2.71,9.81,0.3125,0.125,0.0625,7.87,26.5,8.5,22.1,10.9,-175.8
0,5909,0,-0.09,-0.008972168,224.8125,1.45,0.9,-8.9,3.14,2.71,9.81,-0.6875,-0.3125,0.0625,7.87,26.5,8.5,22.1,10.9,-175.8
0,5919,0,-0.09,-0.008972168,276.8125,1.96,0.74,-9.98,3.14,2.71,9.81,-0.0625,0.25,-0.0625,7.87,26.5,8.5,22.1,10.9,-175.8
0,5928,0,-0.09,-0.008972168,276.8125,2.25,0.34,-10.57,3.14,2.71,9.81,0.5,-0.1875,-0.0625,7.87,27.18,6.75,22.1,10.9,-175.8
0,5939,0,-0.09,-0.008972168,276.8125,1.39,0.97,-8.87,3.14,2.71,9.81,-0.1875,-0.3125,0.0625,7.87,27.18,6.75,22.1,10.9,-175.8
0,5950,0,-0.09,-0.008972168,276.8125,1.85,0.76,-9.77,3.14,2.71,9.81,-0.1875,0.1875,-0.125,7.87,27.18,6.75,22.1,10.9,-175.8
0,5960,0,-0.09,-0.008972168,276.8125,2.22,0.4,-10.44,3.14,2.71,9.81,0.5625,0.1875,-0.125,7.87,27.18,6.75,22.1,10.9,-175.8
0,5970,0,-0.09,-0.0703125,276.8125,1.49,0.81,-8.72,3.14,2.71,9.81,-0.125,-0.125,0.0625,7.87,27.18,6.75,22.1,10.9,-175.8
0,5979,0,-0.09,-0.0703125,276.8125,1.63,0.9099999,-9.48,3.14,2.71,9.81,-0.375,-0.25,-0.0625,7.87,26.06,8.0,22.1,10.9,-175.8
0,5990,0,-0.09,-0.0703125,276.8125,2.16,0.49,-10.33,3.14,2.71,9.81,0.25,0.0,-0.1875,7.87,26.06,8.0,22.1,10.9,-175.8
0,6000,0,-0.09,-0.0703125,276.8125,1.56,0.82,-8.79,3.14,2.71,9.81,0.25,0.25,-0.0625,7.87,26.06,8.0,22.1,10.9,-175.8
0,6010,0,-0.09,-0.0703125,223.8125,1.56,0.89,-9.38,3.14,2.71,9.81,-0.5625,-0.125,-0.125,7.87,26.06,8.0,22.1,10.9,-175.8
0,6021,0,-0.09,-0.008972168,223.8125,2.16,0.52,-10.23,3.14,2.71,9.81,0.1875,0.25,-0.1875,7.87,26.06,8.0,22.1,10.9,-175.8
0,6030,0,-0.09,-0.0703125,223.8125,2.11,0.37,-10.34,3.14,2.71,9.81,0.5625,0.0625,0.0,8.25,28.0,8.5,22.1,10.9,-175.8
0,6040,0,-0.09,-0.0703125,223.8125,1.47,0.89,-9.11,3.14,2.71,9.81,-0.3125,-0.1875,0.0625,8.25,28.0,8.5,22.1,10.9,-175.8
0,6050,0,-0.09,-0.008972168,223.8125,2.0,0.68,-10.03,3.14,2.71,9.81,-0.125,-0.125,0.0,8.25,28.0,8.5,22.1,10.9,-175.8
0,6060,0,-0.09,-0.0703125,223.8125,2.25,0.36,-10.49,3.14,2.71,9.81,0.5625,0.1875,-0.125,8.25,28.0,8.5,22.1,10.9,-175.8
0,6070,0,-0.09,-0.0703125,223.8125,1.79,0.69,-9.27,3.14,2.71,9.81,0.0,0.25,0.125,8.25,28.0,8.5,22.1,10.9,-175.8
0,6079,0,-0.09,-0.0703125,223.8125,1.98,0.68,-9.95,3.14,2.71,9.81,-0.3125,0.1875,0.0,7.87,25.75,7.68,22.1,10.9,-175.8
0,6090,0,-0.09,-0.008972168,223.8125,2.24,0.43,-10.47,3.14,2.71,9.81,0.375,0.125,-0.125,7.87,25.75,7.68,22.1,10.9,-175.8
0,6100,0,-0.09,-0.008972168,223.8125,1.88,0.57,-9.54,3.14,2.71,9.81,0.0625,-0.3125,0.0625,7.87,25.75,7.68,22.1,10.9,-175.8
0,6110,0,-0.09,-0.0703125,198.8125,1.76,0.83,-9.599999,3.14,2.71,9.81,-0.4375,-0.1875,-0.0625,7.87,25.75,7.68,22.1,10.9,-175.8
0,6121,0,-0.09,-0.0703125,198.8125,2.26,0.46,-10.38,3.14,2.71,9.81,0.125,0.5625,-0.1875,7.87,25.75,7.68,22.1,10.9,-175.8
0,6128,0,-0.09,-0.0703125,198.8125,2.11,0.49,-10.03,3.14,2.71,9.81,0.5,0.0625,0.0625,7.87,26.5,7.18,22.1,10.9,-175.8
0,6137,0,-0.09,-0.0703125,198.8125,1.57,0.8599999,-8.83,3.14,2.71,9.81,-0.6875,-0.3125,0.0,7.87,26.5,7.18,22.1,10.9,-175.8
0,6145,0,-0.09,-0.0703125,198.8125,1.57,0.8599999,-8.83,3.14,2.71,9.81,-0.25,0.0625,-0.125,7.87,26.5,7.18,22.1,10.9,-175.8
0,6152,0,-0.09,-0.0703125,198.8125,2.23,0.49,-10.35,3.14,2.71,9.81,-0.25,0.0625,-0.125,7.87,26.5,7.18,22.1,10.9,-175.8
0,6161,0,-0.09,-0.0703125,198.8125,2.11,0.39,-10.16,3.14,2.71,9.81,0.5,0.3125,-0.0625,7.87,26.5,7.18,22.1,10.9,-175.8
0,6295,0,-0.09,-0.1316528,303.8125,2.13,0.39,-10.14,3.14,2.71,9.81,0.0,-0.25,0.0625,8.25,27.18,6.75,22.1,10.9,-175.8
0,6305,0,-0.09,-0.1316528,776.8125,1.63,0.74,-8.84,3.14,2.71,9.81,-0.5625,-0.25,-0.125,8.25,27.18,6.75,22.1,10.9,-175.8
0,6321,0,-0.09,-0.1316528,776.8125,2.24,0.36,-10.44,3.14,2.71,9.81,0.125,-0.0625,-0.0625,8.25,27.18,6.75,22.1,10.9,-175.8
0,6336,0,-0.09,-0.1316528,776.8125,1.72,0.74,-9.19,3.14,2.71,9.81,-0.625,-0.4375,0.0,8.25,26.5,6.75,22.1,10.9,-175.8
0,6355,0,-0.09,-0.1316528,776.8125,1.99,0.7,-10.08,3.14,2.71,9.81,0.375,0.0625,0.0,8.25,26.5,6.75,22.1,10.9,-175.8
0,6369,0,-0.09,-0.1316528,776.8125,1.41,0.9099999,-8.74,3.14,2.71,9.81,-0.3125,-0.3125,0.125,8.25,26.5,6.75,22.1,10.9,-175.8
1,18.0,40.0,14.47746,N,73.0,42.0,20.8374,E,0.0185184,0.0,0.95,2.0,b'ROV',46.74268,6347.0,16.0
0,6387,0,-0.09,-0.0703125,776.8125,1.97,0.56,-9.91,3.14,2.71,9.81,0.375,-0.0625,0.0,7.87,25.75,7.68,22.1,10.9,-175.8
0,6428,0,-0.09,-0.0703125,846.8125,1.53,0.81,-8.74,3.14,2.71,9.81,0.1875,-0.1875,0.1875,8.25,26.06,7.68,22.1,10.9,-175.8
1,18.0,40.0,14.47746,N,73.0,42.0,20.8374,E,0.0185184,0.0,0.95,2.0,b'VNC',46.74268,6347.0,48.0
0,6450,0,-0.09,-0.0703125,846.8125,2.11,0.59,-10.13,3.14,2.71,9.81,-0.0625,0.3125,-0.0625,8.25,26.06,7.68,22.1,10.9,-175.8
0,6498,0,-0.09,-0.008972168,321.8125,1.37,0.93,-8.79,3.14,2.71,9.81,0.0,-0.125,-0.0625,8.68,27.18,5.5,22.1,10.9,-175.8
1,18.0,40.0,14.47746,N,73.0,42.0,20.8374,E,0.0185184,0.0,0.95,2.0,b'GGA',46.94269,6440.0,22.0
0,6518,0,-0.09,-0.008972168,321.8125,2.2,0.48,-10.27,3.14,2.71,9.81,0.4375,0.25,-0.125,8.68,27.18,5.5,22.1,10.9,-175.8
0,6571,0,-0.09,-0.0703125,321.8125,1.6,0.84,-9.24,3.14,2.71,9.81,-0.5625,-0.375,0.0625,8.25,26.5,7.68,22.1,10.9,-175.8
0,6591,0,-0.09,-0.0703125,361.8125,2.2,0.37,-10.3,3.14,2.71,9.81,0.375,0.0,-0.0625,8.25,26.75,7.68,22.1,10.9,-175.8
0,6643,0,-0.09,-0.0703125,361.8125,1.96,0.73,-9.82,3.14,2.71,9.81,-0.5,-0.4375,0.0,7.5,25.75,8.0,22.1,10.9,-175.8
0,6665,0,-0.09,-0.0703125,361.8125,2.04,0.49,-9.809999,3.14,2.71,9.81,-0.3125,-0.125,0.125,7.5,25.75,8.0,22.1,10.9,-175.8
0,6688,0,-0.09,-0.0703125,582.8125,2.07,0.39,-10.08,3.14,2.71,9.81,0.5625,0.125,-0.0625,9.0,26.5,5.06,22.1,10.9,-175.8
0,6705,0,-0.09,-0.0703125,582.8125,1.55,0.82,-8.79,3.14,2.71,9.81,-0.25,-0.125,0.125,9.0,26.5,5.06,22.1,10.9,-175.8
0,6742,0,-0.09,-0.008972168,582.8125,2.01,0.62,-10.01,3.14,2.71,9.81,-0.5625,-0.25,0.125,7.87,26.5,8.06,22.1,10.9,-175.8
0,6760,0,-0.09,-0.0703125,582.8125,1.73,0.74,-9.26,3.14,2.71,9.81,0.3125,-0.125,0.0625,7.87,26.5,8.06,22.1,10.9,-175.8
0,6774,0,-0.09,-0.0703125,544.8125,1.48,0.82,-8.83,3.14,2.71,9.81,-0.375,-0.25,0.125,7.87,26.5,8.06,22.1,10.9,-175.8
0,6787,0,-0.09,-0.0703125,544.8125,2.22,0.49,-10.41,3.14,2.71,9.81,-0.1875,-0.25,0.0625,7.87,26.06,8.0,22.1,10.9,-175.8
0,6796,0,-0.09,-0.0703125,544.8125,2.03,0.51,-9.8,3.14,2.71,9.81,-0.1875,-0.25,0.0625,7.87,26.06,8.0,22.1,10.9,-175.8
1,18.0,40.0,14.47746,N,73.0,42.0,20.8374,E,0.0185184,0.0,0.95,2.0,b'GLL',46.94269,6786.0,9.0
0,6804,0,-0.09,-0.0703125,544.8125,1.5,0.87,-8.86,3.14,2.71,9.81,-0.1875,-0.25,0.0625,7.87,26.06,8.0,22.1,10.9,-175.8
0,6814,0,-0.09,-0.0703125,544.8125,2.23,0.44,-10.31,3.14,2.71,9.81,0.4375,0.0625,-0.125,7.87,26.06,8.0,22.1,10.9,-175.8
0,6823,0,-0.09,-0.0703125,544.8125,2.03,0.45,-9.96,3.14,2.71,9.81,0.125,0.0,0.0,7.87,26.06,8.0,22.1,10.9,-175.8
0,6830,0,-0.09,-0.0703125,544.8125,1.55,0.8,-8.679999,3.14,2.71,9.81,-0.4375,-0.125,-0.0625,8.25,25.75,6.75,22.1,10.9,-175.8
0,6840,0,-0.09,-0.0703125,544.8125,1.63,0.85,-9.309999,3.14,2.71,9.81,0.1875,0.1875,-0.125,8.25,25.75,6.75,22.1,10.9,-175.8
0,6847,0,-0.09,-0.0703125,544.8125,1.63,0.85,-9.309999,3.14,2.71,9.81,0.375,0.1875,0.0,8.25,25.75,6.75,22.1,10.9,-175.8
0,6855,0,-0.09,-0.0703125,544.8125,2.21,0.38,-10.37,3.14,2.71,9.81,0.375,0.1875,0.0,8.25,25.75,6.75,22.1,10.9,-175.8
0,6864,0,-0.09,-0.0703125,544.8125,1.69,0.76,-9.11,3.14,2.71,9.81,-0.625,-0.25,0.0625,8.25,25.75,6.75,22.1,10.9,-175.8
0,6874,0,-0.09,-0.1316528,587.8125,1.47,0.92,-9.16,3.14,2.71,9.81,-0.0625,0.125,-0.125,8.25,25.75,6.75,22.1,10.9,-175.8
0,6882,0,-0.09,-0.1316528,587.8125,2.2,0.42,-10.3,3.14,2.71,9.81,0.4375,0.0625,0.0,7.5,25.37,6.25,22.1,10.9,-175.8
0,6893,0,-0.09,-0.1316528,587.8125,1.75,0.67,-9.24,3.14,2.71,9.81,-0.4375,-0.375,0.0625,7.5,25.37,6.25,22.1,10.9,-175.8
0,6903,0,-0.09,-0.1316528,587.8125,1.49,0.85,-8.88,3.14,2.71,9.81,-0.4375,0.0,-0.125,7.5,25.37,6.25,22.1,10.9,-175.8
0,6913,0,-0.09,-0.1316528,587.8125,1.92,0.77,-9.87,3.14,2.71,9.81,0.125,0.375,-0.0625,7.5,25.37,6.25,22.1,10.9,-175.8
0,6924,0,-0.09,-0.1316528,587.8125,2.01,0.51,-9.71,3.14,2.71,9.81,-0.125,0.0,0.0625,7.5,25.37,6.25,22.1,10.9,-175.8
0,6947,0,-0.09,-0.0703125,587.8125,1.8,0.77,-9.679999,3.14,2.71,9.81,0.3125,0.0,-0.0625,7.87,25.75,8.5,22.1,10.9,-175.8
0,6955,0,-0.09,-0.1316528,587.8125,2.02,0.43,-9.969999,3.14,2.71,9.81,0.3125,0.0,-0.0625,7.87,25.75,8.5,22.1,10.9,-175.8
0,6964,0,-0.09,-0.1316528,652.8125,1.55,0.76,-8.66,3.14,2.71,9.81,-0.5625,-0.1875,0.125,7.87,25.75,8.5,22.1,10.9,-175.8
0,6975,0,-0.09,-0.1316528,652.8125,1.61,0.84,-9.38,3.14,2.71,9.81,-0.125,0.1875,-0.25,7.87,25.75,8.5,22.1,10.9,-175.8
0,6984,0,-0.09,-0.1316528,652.8125,2.14,0.56,-10.15,3.14,2.71,9.81,0.375,-0.125,-0.0625,8.25,26.5,8.0,22.1,10.9,-175.8
0,6994,0,-0.09,-0.0703125,652.8125,1.66,0.79,-8.99,3.14,2.71,9.81,-0.375,-0.125,0.0,8.25,26.5,8.0,22.1,10.9,-175.8
0,7004,0,-0.09,-0.008972168,652.8125,1.54,0.8599999,-9.26,3.14,2.71,9.81,-0.375,0.1875,-0.125,8.25,26.5,8.0,22.1,10.9,-175.8
0,7014,0,-0.09,-0.0703125,652.8125,2.12,0.57,-10.07,3.14,2.71,9.81,0.4375,0.0625,0.0,8.25,26.5,8.0,22.1,10.9,-175.8
0,7024,0,-0.09,-0.0703125,652.8125,1.77,0.65,-9.179999,3.14,2.71,9.81,0.0,0.25,0.0,8.25,26.5,8.0,22.1,10.9,-175.8
0,7033,0,-0.09,-0.0703125,652.8125,1.46,0.8599999,-8.87,3.14,2.71,9.81,-0.5,0.0625,-0.125,7.87,25.0,8.0,22.1,10.9,-175.8
0,7043,0,-0.09,-0.0703125,652.8125,1.92,0.76,-9.9,3.14,2.71,9.81,0.25,0.1875,0.0,7.87,25.0,8.0,22.1,10.9,-175.8
0,7054,0,-0.09,-0.0703125,652.8125,2.26,0.43,-10.31,3.14,2.71,9.81,0.375,-0.125,0.0625,7.87,25.0,8.0,22.1,10.9,-175.8
0,7064,0,-0.09,-0.0703125,726.8125,1.47,0.88,-8.79,3.14,2.71,9.81,-0.5,0.0,0.0,7.87,25.0,8.0,22.1,10.9,-175.8
0,7075,0,-0.09,-0.008972168,726.8125,1.84,0.79,-9.74,3.14,2.71,9.81,0.0625,0.125,-0.125,7.87,25.0,8.0,22.1,10.9,-175.8
0,7084,0,-0.09,-0.008972168,726.8125,2.2,0.5,-10.33,3.14,2.71,9.81,0.375,0.25,-0.0625,8.25,26.5,8.87,22.1,10.9,-175.8
0,7094,0,-0.09,-0.008972168,726.8125,1.52,0.82,-8.72,3.14,2.71,9.81,-0.375,-0.125,0.0625,8.25,26.5,8.87,22.1,10.9,-175.8
0,7104,0,-0.09,-0.008972168,726.8125,1.61,0.87,-9.4,3.14,2.71,9.81,-0.375,0.25,-0.0625,8.25,26.5,8.87,22.1,10.9,-175.8
0,7114,0,-0.09,-0.008972168,726.8125,2.15,0.59,-10.12,3.14,2.71,9.81,0.375,-0.0625,0.0,8.25,26.5,8.87,22.1,10.9,-175.8
0,7124,0,-0.09,-0.008972168,726.8125,2.23,0.39,-10.31,3.14,2.71,9.81,-0.125,-0.375,0.0625,8.25,26.5,8.87,22.1,10.9,-175.8
0,7132,0,-0.09,-0.0703125,726.8125,1.58,0.84,-9.2,3.14,2.71,9.81,-0.375,0.0,0.0,7.87,24.56,7.68,22.1,10.9,-175.8
0,7143,0,-0.09,-0.0703125,726.8125,2.1,0.64,-10.13,3.14,2.71,9.81,0.3125,0.1875,-0.125,7.87,24.56,7.68,22.1,10.9,-175.8
0,7154,0,-0.09,-0.0703125,676.8125,2.16,0.43,-10.29,3.14,2.71,9.81,0.25,-0.0625,-0.125,7.87,24.56,7.68,22.1,10.9,-175.8
0,7165,0,-0.09,-0.0703125,676.8125,1.44,0.9099999,-8.889999,3.14,2.71,9.81,-0.375,-0.0625,0.0625,7.87,24.56,7.68,22.1,10.9,-175.8
0,7175,0,-0.09,-0.0703125,676.8125,1.95,0.74,-9.88,3.14,2.71,9.81,0.125,0.3125,-0.0625,7.87,24.56,7.68,22.1,10.9,-175.8
0,7292,0,-0.09,-0.1316528,738.8125,1.79,0.62,-9.16,3.14,2.71,9.81,-0.3125,-0.25,0.0,7.87,25.75,6.75,22.1,10.9,-175.9
0,7302,0,-0.09,-0.1316528,738.8125,1.96,0.71,-9.849999,3.14,2.71,9.81,-0.25,0.3125,-0.125,7.87,25.75,6.75,22.1,10.9,-175.9
0,7320,0,-0.09,-0.1316528,738.8125,1.92,0.59,-9.71,3.14,2.71,9.81,0.0625,-0.0625,0.0,7.87,25.75,6.75,22.1,11.0,-175.9
0,7334,0,-0.09,-0.1316528,738.8125,1.52,0.82,-8.8,3.14,2.71,9.81,-0.4375,-0.125,-0.0625,7.5,24.56,7.68,22.1,10.9,-175.9
0,7356,0,-0.09,-0.1316528,821.8125,2.09,0.43,-9.969999,3.14,2.71,9.81,0.25,-0.0625,0.0,7.5,24.56,7.68,22.1,11.0,-175.9
0,7373,0,-0.09,-0.1316528,821.8125,2.2,0.56,-10.12,3.14,2.71,9.81,0.1875,0.0625,-0.0625,7.5,24.56,7.68,22.1,11.0,-175.9
1,18.0,40.0,14.47449,N,73.0,42.0,20.82848,E,0.0046296,0.0,0.95,2.0,b'ROV',46.94269,7349.0,18.0
0,7391,0,-0.09,-0.1316528,821.8125,1.68,0.7,-9.03,3.14,2.71,9.81,-0.5625,-0.375,0.0625,8.25,26.06,7.18,22.1,11.0,-175.9
0,7427,0,-0.09,-0.1929932,821.8125,1.77,0.68,-9.25,3.14,2.71,9.81,0.0,0.0,0.0,7.87,24.25,7.68,22.1,11.0,-175.9
1,18.0,40.0,14.47449,N,73.0,42.0,20.82848,E,0.0046296,0.0,0.95,2.0,b'VNC',46.94269,7349.0,50.0
0,7449,0,-0.09,-0.1929932,466.8125,2.2,0.48,-10.38,3.14,2.71,9.81,0.125,0.125,0.0,7.87,24.25,7.68,22.1,11.0,-175.9
0,7498,0,-0.11,-0.1316528,466.8125,1.5,0.81,-8.74,3.14,2.71,9.81,-0.5,0.0,-0.0625,8.25,26.06,8.0,22.1,11.0,-175.9
1,18.0,40.0,14.47449,N,73.0,42.0,20.82848,E,0.0046296,0.0,0.95,2.0,b'GGA',47.1427,7439.0,19.0
0,7519,0,-0.11,-0.1316528,466.8125,2.19,0.41,-10.31,3.14,2.71,9.81,-0.25,-0.3125,0.0625,8.25,26.06,8.0,22.1,11.0,-175.9
0,7570,0,-0.11,-0.1316528,109.8125,1.43,0.88,-8.77,3.14,2.71,9.81,0.125,0.3125,-0.125,7.5,25.0,7.68,22.1,11.0,-175.9
0,7591,0,-0.11,-0.1882935,109.8125,1.55,0.84,-8.84,3.14,2.71,9.81,-0.125,0.1875,-0.25,8.25,26.06,7.18,22.1,11.0,-175.9
0,7641,0,-0.11,-0.1882935,127.8125,2.14,0.6,-10.14,3.14,2.71,9.81,0.375,0.125,-0.1875,7.5,26.06,6.75,22.1,11.0,-175.9
0,7661,0,-0.11,-0.1882935,127.8125,1.52,0.9099999,-9.17,3.14,2.71,9.81,-0.4375,-0.125,0.0,7.5,26.06,6.75,22.1,11.0,-175.9
0,7686,0,-0.11,-0.1882935,127.8125,2.22,0.4,-10.36,3.14,2.71,9.81,0.3125,0.25,0.0,7.87,25.37,8.5,22.1,11.0,-175.9
0,7707,0,-0.11,-0.1882935,127.8125,1.94,0.73,-9.86,3.14,2.71,9.81,0.0,0.0625,0.0,7.87,25.37,8.5,22.1,11.0,-175.9
0,7740,0,-0.11,-0.1882935,308.8125,1.75,0.81,-9.75,3.14,2.71,9.81,0.4375,0.1875,-0.125,7.87,25.0,7.18,22.1,11.0,-175.9
0,7757,0,-0.11,-0.1882935,308.8125,2.05,0.43,-10.0,3.14,2.71,9.81,-0.0625,-0.125,0.0,7.87,25.0,7.18,22.1,11.0,-175.9
0,7771,0,-0.11,-0.2496338,308.8125,1.63,0.83,-9.38,3.14,2.71,9.81,0.1875,0.0625,-0.1875,7.87,25.0,7.18,22.1,11.0,-175.9
0,7782,0,-0.11,-0.2496338,308.8125,2.25,0.36,-10.4,3.14,2.71,9.81,0.3125,-0.125,0.125,7.87,25.0,7.68,22.1,11.0,-175.9
0,7790,0,-0.11,-0.2496338,308.8125,2.25,0.36,-10.4,3.14,2.71,9.81,-0.5,-0.3125,0.0,7.87,25.0,7.68,22.1,11.0,-175.9
1,18.0,40.0,14.47449,N,73.0,42.0,20.82848,E,0.0046296,0.0,0.95,2.0,b'GLL',47.1427,7781.0,9.0
0,7799,0,-0.11,-0.2496338,308.8125,1.5,0.89,-9.2,3.14,2.71,9.81,-0.5,-0.3125,0.0,7.87,25.0,7.68,22.1,11.0,-175.9
0,7807,0,-0.11,-0.2496338,308.8125,2.09,0.57,-10.09,3.14,2.71,9.81,0.0,0.25,-0.125,7.87,25.0,7.68,22.1,11.0,-175.9
0,7817,0,-0.11,-0.2496338,404.8125,2.2,0.44,-10.37,3.14,2.71,9.81,0.4375,0.125,-0.125,7.87,25.0,7.68,22.1,11.0,-175.9
0,7828,0,-0.11,-0.2496338,404.8125,1.78,0.63,-9.19,3.14,2.71,9.81,-0.25,0.0625,0.0625,7.87,25.0,7.68,22.1,11.0,-175.9
0,7836,0,-0.11,-0.2496338,404.8125,1.92,0.8,-9.92,3.14,2.71,9.81,-0.375,0.0625,-0.125,7.87,24.56,7.68,22.1,11.0,-175.9
0,7847,0,-0.11,-0.1929932,404.8125,2.26,0.43,-10.43,3.14,2.71,9.81,0.375,0.0,-0.0625,7.87,24.56,7.68,22.1,11.0,-175.9
0,7858,0,-0.11,-0.1929932,404.8125,1.97,0.54,-9.719999,3.14,2.71,9.81,0.0625,-0.3125,0.1875,7.87,24.56,7.68,22.1,11.0,-175.9
0,7867,0,-0.11,-0.1929932,404.8125,1.79,0.8,-9.69,3.14,2.71,9.81,-0.5,-0.1875,0.0,7.87,24.56,7.68,22.1,11.0,-175.9
0,7877,0,-0.11,-0.1929932,404.8125,2.25,0.43,-10.41,3.14,2.71,9.81,0.1875,0.1875,-0.125,7.87,24.56,7.68,22.1,11.0,-175.9
0,7886,0,-0.11,-0.1929932,404.8125,2.02,0.47,-9.98,3.14,2.71,9.81,0.1875,-0.0625,0.0625,7.87,25.0,8.0,22.1,11.0,-175.9
0,7897,0,-0.11,-0.1929932,404.8125,1.58,0.75,-8.639999,3.14,2.71,9.81,-0.5625,-0.375,0.0625,7.87,25.0,8.0,22.1,11.0,-175.9
0,7907,0,-0.11,-0.1929932,404.8125,2.21,0.51,-10.31,3.14,2.71,9.81,0.0,-0.0625,-0.125,7.87,25.0,8.0,22.1,11.0,-175.9
0,7917,0,-0.11,-0.1929932,454.8125,2.2,0.38,-10.33,3.14,2.71,9.81,0.4375,0.125,-0.125,7.87,25.0,8.0,22.1,11.0,-175.9
0,7928,0,-0.11,-0.1929932,454.8125,1.67,0.75,-8.95,3.14,2.71,9.81,-0.3125,-0.3125,0.0,7.87,25.0,8.0,22.1,11.0,-175.9
0,7937,0,-0.11,-0.1929932,454.8125,2.13,0.56,-10.22,3.14,2.71,9.81,-0.375,0.125,-0.1875,8.25,25.37,7.68,22.1,11.0,-175.9
0,7947,0,-0.11,-0.1929932,454.8125,2.25,0.41,-10.41,3.14,2.71,9.81,0.375,0.0,-0.0625,8.25,25.37,7.68,22.1,11.0,-175.9
0,7958,0,-0.11,-0.1929932,454.8125,1.78,0.59,-9.13,3.14,2.71,9.81,-0.125,0.125,0.0,8.25,25.37,7.68,22.1,11.0,-175.9
0,7968,0,-0.11,-0.1929932,454.8125,1.46,0.93,-8.79,3.14,2.71,9.81,-0.625,0.0625,-0.0625,8.25,25.37,7.68,22.1,11.0,-175.9
0,7978,0,-0.11,-0.1929932,454.8125,2.33,0.34,-10.61,3.14,2.71,9.81,0.1875,0.0625,-0.125,8.25,25.37,7.68,22.1,11.0,-175.9
0,7987,0,-0.11,-0.1929932,454.8125,1.94,0.57,-9.63,3.14,2.71,9.81,0.3125,-0.3125,0.125,9.0,24.56,8.0,22.1,11.0,-175.9
0,7997,0,-0.11,-0.1929932,454.8125,1.5,0.88,-8.7,3.14,2.71,9.81,-0.6875,-0.4375,0.125,9.0,24.56,8.0,22.1,11.0,-175.9
0,8008,0,-0.11,-0.1929932,574.8125,2.25,0.45,-10.49,3.14,2.71,9.81,-0.0625,0.0625,-0.0625,9.0,24.56,8.0,22.1,11.0,-175.9
0,8019,0,-0.11,-0.1929932,574.8125,2.07,0.41,-10.0,3.14,2.71,9.81,0.3125,0.0625,-0.0625,9.0,24.56,8.0,22.1,11.0,-175.9
0,8028,0,-0.11,-0.1929932,574.8125,1.59,0.71,-8.679999,3.14,2.71,9.81,-0.5625,-0.1875,-0.0625,9.0,24.56,8.0,22.1,11.0,-175.9
0,8036,0,-0.11,-0.1929932,574.8125,1.53,0.93,-9.17,3.14,2.71,9.81,-0.3125,0.0625,-0.125,8.25,25.37,8.0,22.1,11.0,-175.9
0,8047,0,-0.11,-0.1929932,574.8125,2.21,0.42,-10.37,3.14,2.71,9.81,0.625,0.1875,0.0,8.25,25.37,8.0,22.1,11.0,-175.9
0,8058,0,-0.11,-0.2543335,574.8125,1.68,0.74,-9.11,3.14,2.71,9.81,-0.125,-0.25,0.125,8.25,25.37,8.0,22.1,11.0,-175.9
0,8068,0,-0.11,-0.2543335,574.8125,1.47,0.93,-9.04,3.14,2.71,9.81,-0.5,0.0625,-0.0625,8.25,25.37,8.0,22.1,11.0,-175.9
0,8078,0,-0.11,-0.2543335,574.8125,2.2,0.42,-10.51,3.14,2.71,9.81,0.375,0.1875,0.0,8.25,25.37,8.0,22.1,11.0,-175.9
0,8087,0,-0.11,-0.2543335,574.8125,1.77,0.57,-9.2,3.14,2.71,9.81,0.125,0.0,0.0625,8.68,25.37,8.5,22.1,11.0,-175.9
0,8098,0,-0.11,-0.2543335,574.8125,1.37,0.92,-8.74,3.14,2.71,9.81,-0.625,-0.125,0.0,8.68,25.37,8.5,22.1,11.0,-175.9
0,8108,0,-0.11,-0.2543335,599.8125,1.87,0.79,-9.809999,3.14,2.71,9.81,0.125,0.1875,-0.1875,8.68,25.37,8.5,22.1,11.0,-175.9
0,8119,0,-0.11,-0.1882935,599.8125,1.92,0.57,-9.71,3.14,2.71,9.81,0.4375,0.25,0.0625,8.68,25.37,8.5,22.1,11.0,-175.9
0,8128,0,-0.11,-0.1882935,599.8125,1.49,0.85,-8.77,3.14,2.71,9.81,-0.5,-0.125,0.0625,8.68,25.37,8.5,22.1,11.0,-175.9
0,8137,0,-0.11,-0.1882935,599.8125,1.73,0.87,-9.65,3.14,2.71,9.81,-0.1875,0.125,-0.125,8.68,26.06,7.18,22.1,11.0,-175.9
0,8162,0,-0.11,-0.1882935,599.8125,1.5,0.74,-8.63,3.14,2.71,9.81,-0.5625,-0.125,0.0,8.68,26.06,7.18,22.1,11.0,-175.9
0,8170,0,-0.11,-0.1882935,599.8125,1.48,0.94,-9.15,3.14,2.71,9.81,-0.5625,-0.125,0.0,8.68,26.06,7.18,22.1,11.0,-175.9
0,8180,0,-0.11,-0.1882935,599.8125,2.24,0.54,-10.33,3.14,2.71,9.81,0.4375,0.0625,-0.1875,8.68,26.06,7.18,22.1,11.0,-175.9
0,8296,0,-0.11,-0.2496338,927.8125,1.59,0.9099999,-9.23,3.14,2.71,9.81,-0.6875,0.0,0.0,8.25,25.37,7.18,22.1,11.0,-175.9
0,8315,0,-0.11,-0.1882935,927.8125,2.23,0.44,-10.38,3.14,2.71,9.81,0.3125,0.0625,0.0,8.25,25.37,7.18,22.1,11.0,-175.9
0,8328,0,-0.11,-0.1882935,927.8125,1.51,0.94,-9.0,3.14,2.71,9.81,-0.5625,-0.125,0.125,8.25,25.37,7.18,22.1,11.0,-175.9
0,8347,0,-0.11,-0.1882935,927.8125,2.3,0.37,-10.41,3.14,2.71,9.81,0.5625,0.375,0.0,8.25,26.06,6.68,22.1,11.0,-175.9
0,8363,0,-0.11,-0.1882935,927.8125,1.41,0.93,-8.73,3.14,2.71,9.81,-0.375,-0.125,-0.0625,8.25,26.06,6.68,22.1,11.0,-175.9
1,18.0,40.0,14.4738,N,73.0,42.0,20.82069,E,0.1687232,0.0,0.95,2.0,b'ROV',47.1427,8340.0,17.0
0,8382,0,-0.11,-0.2496338,927.8125,2.29,0.48,-10.54,3.14,2.71,9.81,0.375,0.25,-0.125,8.25,24.56,7.68,22.1,11.0,-175.9
0,8425,0,-0.11,-0.2496338,780.8125,1.56,0.89,-9.2,3.14,2.71,9.81,-0.6875,-0.3125,0.0625,8.25,24.56,7.68,22.1,11.0,-175.9
1,18.0,40.0,14.4738,N,73.0,42.0,20.82069,E,0.1687232,0.0,0.95,2.0,b'VNC',47.1427,8340.0,51.0
0,8446,0,-0.11,-0.2496338,780.8125,2.2,0.44,-10.37,3.14,2.71,9.81,0.5625,0.0,0.0625,7.87,25.0,8.0,22.1,11.0,-175.9
0,8496,0,-0.13,-0.1882935,374.8125,1.9,0.78,-9.849999,3.14,2.71,9.81,-0.5,-0.25,0.0,7.18,23.5,8.87,22.1,11.0,-175.9
1,18.0,40.0,14.4738,N,73.0,42.0,20.82069,E,0.1687232,0.0,0.95,2.0,b'GGA',47.34271,8436.0,18.0
0,8516,0,-0.13,-0.2496338,374.8125,2.0,0.52,-9.679999,3.14,2.71,9.81,0.1875,-0.125,0.0625,7.18,23.5,8.87,22.1,11.0,-175.9
0,8569,0,-0.13,-0.2496338,374.8125,2.15,0.57,-10.38,3.14,2.71,9.81,-0.375,-0.125,-0.0625,8.68,24.56,6.75,22.1,11.0,-175.9
0,8593,0,-0.13,-0.2496338,162.8125,1.66,0.76,-8.82,3.14,2.71,9.81,-0.75,-0.125,0.0,8.25,24.25,7.68,22.1,11.0,-175.9
0,8639,0,-0.13,-0.1882935,162.8125,2.32,0.26,-10.78,3.14,2.71,9.81,0.25,0.5,-0.1875,7.87,25.75,6.25,22.1,11.0,-175.9
0,8663,0,-0.13,-0.2496338,162.8125,1.26,1.0,-8.7,3.14,2.71,9.81,0.0,0.1875,-0.1875,7.87,25.75,6.25,22.1,11.0,-175.9
0,8686,0,-0.13,-0.2496338,117.8125,1.23,1.01,-8.429999,3.14,2.71,9.81,-0.75,-0.375,0.0625,7.87,24.56,8.0,22.1,11.0,-175.9
0,8703,0,-0.13,-0.2496338,117.8125,1.89,0.76,-9.83,3.14,2.71,9.81,0.75,0.375,-0.0625,7.87,24.56,8.0,22.1,11.0,-175.9
0,8740,0,-0.13,-0.1882935,117.8125,2.34,0.26,-10.8,3.14,2.71,9.81,0.6875,0.3125,-0.0625,8.68,25.0,6.25,22.1,11.0,-175.9
0,8758,0,-0.13,-0.1882935,117.8125,1.68,0.92,-9.559999,3.14,2.71,9.81,-0.875,0.0,-0.125,8.68,25.0,6.25,22.1,11.0,-175.9
0,8774,0,-0.13,-0.1882935,325.8125,2.42,0.32,-10.86,3.14,2.71,9.81,0.25,0.0625,0.0625,8.68,25.0,6.25,22.1,11.0,-175.9
0,8786,0,-0.13,-0.1882935,325.8125,1.66,0.9099999,-9.469999,3.14,2.71,9.81,-1.0625,-0.0625,0.0,8.25,25.75,7.56,22.1,11.0,-175.9
0,8794,0,-0.13,-0.2496338,325.8125,1.66,0.9099999,-9.469999,3.14,2.71,9.81,0.25,0.3125,-0.1875,8.25,25.75,7.56,22.1,11.0,-175.9
1,18.0,40.0,14.4738,N,73.0,42.0,20.82069,E,0.1687232,0.0,0.95,2.0,b'GLL',47.34271,8785.0,8.0
0,8802,0,-0.13,-0.1882935,325.8125,2.28,0.46,-10.58,3.14,2.71,9.81,0.25,0.3125,-0.1875,8.25,25.75,7.56,22.1,11.0,-175.9
0,8812,0,-0.13,-0.1882935,325.8125,2.25,0.4,-10.2,3.14,2.71,9.81,0.5625,0.25,-0.0625,8.25,25.75,7.56,22.1,11.0,-175.9
0,8821,0,-0.13,-0.1269531,325.8125,1.54,0.99,-9.309999,3.14,2.71,9.81,-0.875,-0.3125,0.0625,8.25,25.75,7.56,22.1,11.0,-175.9
0,8831,0,-0.13,-0.1882935,325.8125,2.27,0.5,-10.29,3.14,2.71,9.81,-0.25,0.125,-0.25,8.25,25.75,7.56,22.1,11.0,-175.9
0,8839,0,-0.13,-0.1882935,325.8125,2.36,0.31,-10.67,3.14,2.71,9.81,0.6875,0.1875,0.0,7.87,26.06,7.68,22.1,11.0,-175.9
0,8850,0,-0.13,-0.1882935,325.8125,1.47,0.9599999,-9.21,3.14,2.71,9.81,-0.4375,-0.25,0.125,7.87,26.06,7.68,22.1,11.0,-175.9
0,8861,0,-0.13,-0.1882935,474.8125,2.16,0.62,-10.18,3.14,2.71,9.81,-0.5,0.0625,-0.125,7.87,26.06,7.68,22.1,11.0,-175.9
0,8872,0,-0.13,-0.1882935,474.8125,2.32,0.34,-10.75,3.14,2.71,9.81,0.4375,0.3125,-0.0625,7.87,26.06,7.68,22.1,11.0,-175.9
0,8882,0,-0.13,-0.1882935,474.8125,1.72,0.68,-8.809999,3.14,2.71,9.81,0.0625,-0.1875,0.0625,7.87,26.06,7.68,22.1,11.0,-175.9
0,8890,0,-0.13,-0.2496338,474.8125,2.05,0.72,-9.929999,3.14,2.71,9.81,-0.6875,-0.0625,-0.125,8.25,27.18,6.25,22.1,11.0,-175.9
0,8901,0,-0.13,-0.2496338,474.8125,2.4,0.32,-10.84,3.14,2.71,9.81,0.5,0.125,-0.0625,8.25,27.18,6.25,22.1,11.0,-175.9
0,8911,0,-0.13,-0.2496338,474.8125,1.81,0.64,-9.24,3.14,2.71,9.81,0.5,0.1875,0.0,8.25,27.18,6.25,22.1,11.0,-175.9
0,8936,0,-0.13,-0.2496338,474.8125,1.94,0.5,-9.57,3.14,2.71,9.81,0.4375,0.5625,-0.1875,7.87,26.5,7.56,22.1,11.0,-175.9
0,8943,0,-0.13,-0.2496338,474.8125,1.94,0.5,-9.57,3.14,2.71,9.81,0.4375,0.5625,-0.1875,7.87,26.5,7.56,22.1,11.0,-175.9
0,8952,0,-0.13,-0.2496338,474.8125,1.51,0.8599999,-8.65,3.14,2.71,9.81,-0.5,-0.25,0.0625,7.87,26.5,7.56,22.1,11.0,-175.9
0,8962,0,-0.13,-0.2496338,172.8125,2.33,0.45,-10.55,3.14,2.71,9.81,-0.375,0.25,-0.25,7.87,26.5,7.56,22.1,11.0,-175.9
0,8972,0,-0.13,-0.2496338,172.8125,2.15,0.38,-10.1,3.14,2.71,9.81,0.5625,0.3125,-0.125,7.87,26.5,7.56,22.1,11.0,-175.9
0,8982,0,-0.13,-0.2496338,172.8125,1.5,0.87,-8.67,3.14,2.71,9.81,-0.25,-0.1875,0.0,7.87,26.5,7.56,22.1,11.0,-175.9
0,8991,0,-0.13,-0.2496338,172.8125,2.24,0.46,-10.37,3.14,2.71,9.81,-0.5625,-0.0625,0.0625,9.37,27.56,6.25,22.1,11.0,-175.9
0,9001,0,-0.13,-0.2496338,172.8125,2.15,0.37,-10.29,3.14,2.71,9.81,0.4375,0.3125,-0.1875,9.37,27.56,6.25,22.1,11.0,-175.9
0,9012,0,-0.13,-0.1882935,172.8125,1.63,0.68,-8.76,3.14,2.71,9.81,0.125,0.0,-0.0625,9.37,27.56,6.25,22.1,11.0,-175.8
0,9022,0,-0.13,-0.1882935,172.8125,1.47,0.97,-8.97,3.14,2.71,9.81,-0.75,-0.1875,0.0625,9.37,27.56,6.25,22.1,11.0,-175.8
0,9032,0,-0.13,-0.1882935,172.8125,2.28,0.34,-10.59,3.14,2.71,9.81,0.3125,0.0,-0.25,9.37,27.56,6.25,22.1,11.0,-175.8
0,9039,0,-0.13,-0.1882935,172.8125,1.8,0.63,-9.13,3.14,2.71,9.81,0.5625,0.125,-0.0625,9.0,28.0,6.25,22.1,11.0,-175.8
0,9048,0,-0.13,-0.1269531,172.8125,1.43,1.02,-8.76,3.14,2.71,9.81,-0.625,-0.125,0.0,9.0,28.0,6.25,22.1,11.0,-175.8
0,9055,0,-0.13,-0.1269531,90.8125,1.43,1.02,-8.76,3.14,2.71,9.81,-0.25,-0.0625,-0.0625,9.0,28.0,6.25,22.1,11.0,-175.8
0,9063,0,-0.13,-0.1882935,90.8125,2.26,0.35,-10.53,3.14,2.71,9.81,-0.25,-0.0625,-0.0625,9.0,28.0,6.25,22.1,11.0,-175.8
0,9072,0,-0.13,-0.1882935,90.8125,1.83,0.48,-9.46,3.14,2.71,9.81,0.5625,0.375,-0.0625,9.0,28.0,6.25,22.1,11.0,-175.8
