fast readings format - (data_type = 0, time, state, temperature, alt, ram_diff, bno_x, bno_y, bno_z, high_x, high_y, high_z, gyro_x, gyro_y, gyro_z, mag_x, mag_y, mag_z, heading, roll, pitch)
slow readings format - (data_type = 1, lat degrees, lat minutes, lat seconds, N/S, lon degrees, lon minutes, lon seconds, E/W,speed, course, hdop, vdop, senstence_tpe, gps alt, fix time since init, time since last fix)

longitude seconds are rounded to int and hence all longitude data is useless.

0,440,0,32.42,0.0112915,0.0,0.009999999,-1.51,-9.69,3.14,2.71,9.81,-0.125,-1.5625,1.3125,40.18,-4.87,6.75,97.3,0.6,171.7
0,471,0,32.42,0.06790161,0.0,-0.11,-1.48,-10.08,3.14,2.71,9.81,-1.0,-0.5,-0.0625,39.75,-6.0,7.25,97.3,0.6,171.7
0,515,0,32.42,0.06790161,0.0,0.07,-1.53,-9.71,3.14,2.71,9.81,0.5625,0.125,0.25,39.75,-5.25,5.18,97.3,0.6,171.7
0,540,0,32.42,0.06790161,-138.1875,0.0,-1.54,-9.84,3.14,2.71,9.81,-0.0625,-0.1875,0.0,39.75,-5.25,5.18,97.3,0.6,171.7
0,592,0,32.42,0.06790161,-138.1875,0.03,-1.51,-9.78,3.14,2.71,9.81,-0.0625,-0.25,0.0,40.18,-4.87,6.0,97.3,0.6,171.7
0,624,0,32.42,0.06790161,-80.1875,0.009999999,-1.5,-9.78,3.14,2.71,9.81,0.0625,0.0,0.125,40.56,-4.5,6.75,97.3,0.6,171.7
0,661,0,32.42,0.06790161,-80.1875,0.009999999,-1.53,-9.74,3.14,2.71,9.81,0.0,0.125,0.0625,41.0,-5.25,6.37,97.3,0.6,171.7
0,713,0,32.42,0.06790161,-252.1875,0.02,-1.49,-9.78,3.14,2.71,9.81,0.0625,0.25,0.0,40.18,-4.87,6.75,97.3,0.6,171.7
0,752,0,32.42,0.1292419,-252.1875,0.009999999,-1.54,-9.76,3.14,2.71,9.81,0.0,-0.0625,0.0,40.18,-4.87,6.75,97.3,0.6,171.7
0,921,0,32.42,0.1292419,260.8125,0.009999999,-1.5,-9.8,3.14,2.71,9.81,-0.0625,0.125,0.0,39.75,-4.87,6.06,97.3,0.6,171.7
1,18.0,39.0,48.97385,N,73.0,42.0,37.0,E,0.0,0.0,0.93,0.0,b'GGA',91.16132,726.0,172.0
0,953,0,32.42,0.1292419,260.8125,0.009999999,-1.5,-9.809999,3.14,2.71,9.81,-0.1875,-0.125,0.1875,39.75,-4.87,6.06,97.3,0.6,171.7
0,994,0,32.42,0.1292419,260.8125,0.02,-1.51,-9.76,3.14,2.71,9.81,-0.1875,-0.0625,0.0625,40.56,-4.87,5.68,97.3,0.6,171.7
0,1027,0,32.42,0.1292419,376.8125,0.03,-1.51,-9.79,3.14,2.71,9.81,-0.0625,0.0,-0.0625,40.56,-4.87,6.0,97.3,0.6,171.7
0,1073,0,32.42,0.1292419,376.8125,0.04,-1.52,-9.78,3.14,2.71,9.81,0.0,-0.125,0.0625,39.75,-4.87,5.68,97.3,0.6,171.7
0,1111,0,32.42,0.06790161,96.8125,0.04,-1.51,-9.77,3.14,2.71,9.81,-0.0625,0.0,0.0625,40.56,-4.5,6.0,97.3,0.6,171.7
0,1144,0,32.42,0.06790161,96.8125,0.009999999,-1.51,-9.82,3.14,2.71,9.81,0.0,0.0,0.0625,40.56,-4.5,6.0,97.3,0.6,171.7
1,18.0,39.0,48.97385,N,73.0,42.0,37.0,E,0.0,0.0,0.93,2.01,b'VNC',91.16132,726.0,395.0
0,1200,0,32.43,0.006591797,247.8125,0.02,-1.51,-9.79,3.14,2.71,9.81,-0.0625,0.1875,0.0625,40.18,-5.25,6.5,97.3,0.6,171.7
0,1231,0,32.43,-0.05004883,247.8125,0.009999999,-1.52,-9.809999,3.14,2.71,9.81,0.0625,0.125,-0.0625,40.56,-5.25,6.5,97.3,0.6,171.7
1,18.0,39.0,48.92509,N,73.0,42.0,38.0,E,0.0,0.0,1.3,2.01,b'GGA',103.2614,1158.0,50.0
0,1283,0,32.43,-0.05004883,246.8125,0.009999999,-1.51,-9.78,3.14,2.71,9.81,-0.125,-0.1875,-0.0625,40.56,-5.68,6.5,97.3,0.6,171.7
0,1318,0,32.43,-0.1113586,246.8125,0.009999999,-1.52,-9.79,3.14,2.71,9.81,0.0,0.125,-0.0625,40.56,-4.87,6.5,97.3,0.6,171.7
0,1357,0,32.43,-0.05004883,246.8125,0.0,-1.52,-9.78,3.14,2.71,9.81,0.0,0.0625,0.0,40.56,-4.87,6.5,97.3,0.6,171.7
0,1404,0,32.43,-0.05004883,-236.1875,0.009999999,-1.49,-9.75,3.14,2.71,9.81,0.0,-0.1875,0.0,40.56,-5.25,5.68,97.3,0.6,171.7
0,1440,0,32.43,-0.05004883,-236.1875,0.03,-1.5,-9.809999,3.14,2.71,9.81,0.0,0.0,-0.0625,41.0,-3.06,5.18,97.3,0.6,171.7
0,1487,0,32.43,-0.05004883,-357.1875,0.03,-1.51,-9.8,3.14,2.71,9.81,0.0625,0.0,-0.125,40.18,-4.5,6.5,97.3,0.6,171.7
0,1521,0,32.43,-0.1113586,-357.1875,0.05,-1.46,-9.8,3.14,2.71,9.81,0.0,-0.0625,-0.0625,40.56,-4.87,6.5,97.3,0.6,171.7
0,1549,0,32.43,-0.05004883,-357.1875,0.03,-1.5,-9.78,3.14,2.71,9.81,0.125,0.1875,-0.0625,40.56,-4.87,6.5,97.3,0.6,171.7
0,1592,0,32.43,-0.1113586,-374.1875,0.04,-1.51,-9.77,3.14,2.71,9.81,0.0,0.25,-0.0625,40.56,-4.87,6.0,97.3,0.6,171.7
0,1617,0,32.43,-0.1113586,-374.1875,0.07,-1.52,-9.77,3.14,2.71,9.81,-0.0625,-0.1875,0.0625,40.56,-6.37,6.5,97.3,0.6,171.7
1,18.0,39.0,48.92509,N,73.0,42.0,38.0,E,0.0,0.0,1.3,3.47,b'GLL',103.2614,1560.0,40.0
0,1658,0,32.43,-0.1113586,-374.1875,0.04,-1.52,-9.79,3.14,2.71,9.81,-0.125,0.0,-0.0625,40.56,-6.37,6.5,97.3,0.6,171.7
0,1683,0,32.43,-0.1113586,-374.1875,0.03,-1.52,-9.8,3.14,2.71,9.81,-0.125,-0.125,0.0625,39.75,-5.25,5.68,97.3,0.6,171.7
0,1707,0,32.43,-0.172699,-374.1875,0.03,-1.52,-9.82,3.14,2.71,9.81,0.0,0.0,0.0,39.75,-5.25,5.68,97.3,0.6,171.7
0,1747,0,32.43,-0.1113586,-374.1875,0.009999999,-1.52,-9.809999,3.14,2.71,9.81,0.0,0.0625,-0.0625,41.0,-4.87,6.87,97.3,0.6,171.7
0,1774,0,32.43,-0.172699,-320.1875,0.02,-1.51,-9.79,3.14,2.71,9.81,-0.1875,-0.125,0.0,39.5,-5.25,6.87,97.3,0.6,171.7
0,1850,0,32.43,-0.2340393,-107.1875,0.009999999,-1.48,-9.77,3.14,2.71,9.81,0.0625,-0.25,0.125,40.18,-5.25,7.25,97.3,0.6,171.7
0,1900,0,32.43,-0.2953796,-107.1875,-0.009999999,-1.53,-9.78,3.14,2.71,9.81,-0.1875,0.1875,0.0,40.56,-4.87,6.0,97.3,0.6,171.7
0,1932,0,32.43,-0.2340393,-107.1875,0.009999999,-1.48,-9.8,3.14,2.71,9.81,0.0,-0.1875,0.0625,40.56,-5.68,6.0,97.3,0.6,171.7
0,1985,0,32.43,-0.172699,7.8125,0.05,-1.47,-9.78,3.14,2.71,9.81,-0.125,0.0,0.0625,40.18,-4.5,6.0,97.3,0.6,171.7
0,2138,0,32.43,-0.1160889,175.8125,0.02,-1.53,-9.75,3.14,2.71,9.81,0.0,-0.3125,0.0625,41.0,-5.68,6.06,97.3,0.6,171.7
1,18.0,39.0,48.91869,N,73.0,42.0,38.0,E,0.6620328,295.42,1.3,3.47,b'RMC',103.2614,1944.0,172.0
0,2194,0,32.43,-0.05474854,175.8125,0.02,-1.47,-9.809999,3.14,2.71,9.81,0.0625,-0.3125,0.0625,39.75,-4.5,4.87,97.3,0.6,171.7
0,2225,0,32.43,-0.1160889,175.8125,-0.009999999,-1.49,-9.809999,3.14,2.71,9.81,0.125,0.0625,0.0625,41.0,-5.68,5.25,97.3,0.6,171.7
1,18.0,39.0,48.91869,N,73.0,42.0,38.0,E,0.6620328,295.42,1.3,3.47,b'VTG',103.2614,1944.0,257.0
0,2277,0,32.43,-0.1160889,792.8125,0.0,-1.49,-9.79,3.14,2.71,9.81,-0.0625,-0.25,0.0625,40.18,-4.87,5.25,97.3,0.6,171.7
0,2310,0,32.43,-0.172699,792.8125,-0.009999999,-1.52,-9.83,3.14,2.71,9.81,0.0,0.0625,0.0,40.18,-4.87,5.25,97.3,0.6,171.7
1,18.0,39.0,48.91869,N,73.0,42.0,38.0,E,0.6620328,295.42,1.3,3.47,b'GGA',102.7614,2235.0,53.0
0,2349,0,32.43,-0.1160889,778.8125,-0.009999999,-1.52,-9.82,3.14,2.71,9.81,-0.125,0.125,0.0,41.0,-5.25,6.5,97.3,0.6,171.7
0,2402,0,32.43,-0.1160889,778.8125,0.009999999,-1.5,-9.8,3.14,2.71,9.81,-0.0625,0.125,0.125,40.18,-5.68,6.06,97.3,0.6,171.7
0,2439,0,32.43,-0.1160889,553.8125,0.05,-1.48,-9.83,3.14,2.71,9.81,0.0,0.0625,0.0625,40.56,-4.87,6.5,97.3,0.6,171.7
0,2490,0,32.44,-0.1774292,553.8125,0.06,-1.54,-9.8,3.14,2.71,9.81,0.0625,0.0625,0.0,40.18,-5.25,6.18,97.3,0.6,171.7
0,2529,0,32.44,-0.1774292,534.8125,0.03,-1.51,-9.79,3.14,2.71,9.81,0.125,-0.1875,0.0625,40.18,-4.5,6.06,97.3,0.6,171.7
0,2564,0,32.44,-0.1774292,534.8125,0.05,-1.5,-9.77,3.14,2.71,9.81,-0.125,0.3125,-0.0625,40.18,-4.87,6.5,97.3,0.6,171.7
0,2611,0,32.44,-0.2340393,492.8125,0.05,-1.53,-9.74,3.14,2.71,9.81,0.0,-0.125,0.0625,40.18,-4.87,6.5,97.3,0.6,171.7
0,2641,0,32.44,-0.2340393,492.8125,0.04,-1.52,-9.78,3.14,2.71,9.81,0.0,0.125,-0.0625,40.56,-4.87,6.5,97.3,0.6,171.7
0,2686,0,32.44,-0.2340393,492.8125,0.05,-1.53,-9.87,3.14,2.71,9.81,0.0625,-0.1875,0.0,40.18,-5.25,7.37,97.3,0.6,171.7
0,2710,0,32.44,-0.2953796,552.8125,0.009999999,-1.5,-9.809999,3.14,2.71,9.81,-0.0625,-0.3125,0.0625,40.18,-5.25,7.37,97.3,0.6,171.7
1,18.0,39.0,48.91869,N,73.0,42.0,38.0,E,0.6620328,295.42,1.3,3.47,b'GLL',102.7614,2654.0,39.0
0,2734,0,32.44,-0.2340393,552.8125,0.009999999,-1.54,-9.87,3.14,2.71,9.81,0.1875,-0.1875,-0.0625,40.56,-4.87,6.06,97.3,0.6,171.7
0,2774,0,32.44,-0.1774292,552.8125,-0.02,-1.53,-9.809999,3.14,2.71,9.81,-0.125,0.125,0.0625,39.75,-4.87,6.5,97.3,0.6,171.7
0,2829,0,32.44,-0.1160889,390.8125,-0.009999999,-1.5,-9.74,3.14,2.71,9.81,0.0625,0.0,-0.0625,39.75,-5.25,7.25,97.3,0.6,171.7
0,2878,0,32.44,-0.05474854,390.8125,-0.009999999,-1.54,-9.79,3.14,2.71,9.81,0.0,0.125,-0.0625,40.18,-6.0,5.25,97.3,0.6,171.7
0,2908,0,32.44,-0.05474854,258.8125,0.02,-1.52,-9.75,3.14,2.71,9.81,0.0,0.25,0.0625,40.18,-6.0,5.25,97.3,0.6,171.7
0,2944,0,32.44,-0.1208191,258.8125,0.009999999,-1.51,-9.809999,3.14,2.71,9.81,0.0,0.0625,-0.125,40.56,-6.0,6.06,97.3,0.6,171.7
0,2992,0,32.44,-0.05947876,-82.1875,0.04,-1.54,-9.77,3.14,2.71,9.81,-0.125,0.3125,0.0,40.56,-5.68,4.37,97.3,0.6,171.7
1,18.0,39.0,48.91022,N,73.0,42.0,38.0,E,0.08281839,0.0,1.3,3.47,b'ROV',102.7614,2937.0,49.0
0,3031,0,32.44,0.001861572,-82.1875,0.07,-1.51,-9.809999,3.14,2.71,9.81,-0.0625,0.25,0.0,40.56,-6.0,6.0,97.3,0.6,171.7
0,3081,0,32.44,0.001861572,-93.1875,-0.03,-1.35,-9.48,3.14,2.71,9.81,-0.3125,0.0625,0.0,31.37,61.5,25.5,97.3,0.6,171.7
1,18.0,39.0,48.91022,N,73.0,42.0,38.0,E,0.08281839,0.0,1.3,3.47,b'VNC',102.7614,2937.0,136.0
0,3122,0,32.44,0.001861572,-93.1875,0.18,-1.58,-10.13,3.14,2.71,9.81,-0.25,-0.0625,0.25,30.0,43.87,27.06,97.3,0.6,171.7
0,3157,0,32.44,0.001861572,-93.1875,0.07,-1.45,-9.55,3.14,2.71,9.81,0.0625,-0.0625,-0.125,30.0,43.87,27.06,97.3,0.6,171.7
1,18.0,39.0,48.91022,N,73.0,42.0,38.0,E,0.08281839,0.0,1.3,3.47,b'GGA',103.0613,3112.0,38.0
0,3210,0,32.44,-0.05947876,26.8125,0.17,-1.54,-9.809999,3.14,2.71,9.81,-0.1875,-0.375,0.0625,31.0,31.06,23.5,97.3,0.6,171.7
0,3241,0,32.44,-0.1208191,26.8125,-0.13,-1.47,-9.929999,3.14,2.71,9.81,-0.125,0.125,0.0625,31.0,28.18,21.87,97.3,0.6,171.7
0,3296,0,32.44,-0.1208191,209.8125,0.13,-1.48,-9.639999,3.14,2.71,9.81,0.0625,0.25,0.0625,31.75,23.25,20.06,97.3,0.5,171.7
0,3328,0,32.44,-0.05947876,209.8125,0.07,-1.61,-10.13,3.14,2.71,9.81,-0.25,0.25,-0.0625,32.18,17.75,18.87,97.3,0.5,171.7
0,3366,0,32.44,-0.05947876,503.8125,-0.19,-1.43,-9.59,3.14,2.71,9.81,0.0625,-0.25,0.0625,32.87,16.0,18.06,97.3,0.5,171.7
0,3414,0,32.44,-0.05947876,503.8125,0.15,-1.55,-9.79,3.14,2.71,9.81,-0.25,-0.0625,-0.0625,32.87,16.0,18.06,97.3,0.5,171.7
0,3447,0,32.44,-0.1208191,503.8125,-0.09,-1.57,-10.01,3.14,2.71,9.81,-0.25,0.625,-0.125,32.18,21.87,19.68,97.3,0.5,171.7
0,3492,0,32.44,-0.1208191,612.8125,0.2,-1.46,-9.23,3.14,2.71,9.81,0.1875,0.25,0.125,31.37,22.25,19.37,97.3,0.5,171.7
0,3521,0,32.44,-0.1774292,612.8125,0.32,-1.75,-10.37,3.14,2.71,9.81,0.0625,0.0625,0.0,31.75,17.75,17.68,97.3,0.5,171.7
0,3546,0,32.44,-0.1774292,612.8125,0.08,-1.41,-9.51,3.14,2.71,9.81,-1.0625,-0.75,-0.125,31.75,17.75,17.68,97.3,0.5,171.7
1,18.0,39.0,48.91022,N,73.0,42.0,38.0,E,0.08281839,0.0,1.3,3.47,b'GLL',103.0613,3521.0,24.0
0,3588,0,32.44,-0.1774292,656.8125,-0.18,-1.46,-9.889999,3.14,2.71,9.81,-0.0625,0.0625,0.0625,32.18,13.75,15.68,97.3,0.5,171.7
0,3612,0,32.44,-0.1774292,656.8125,0.24,-1.78,-10.2,3.14,2.71,9.81,0.375,0.9375,-0.1875,32.18,13.75,15.68,97.3,0.5,171.7
0,3651,0,32.44,-0.1208191,622.8125,-0.71,-1.14,-9.08,3.14,2.71,9.81,-0.4375,0.8125,0.0,33.56,20.75,17.68,97.3,0.5,171.7
0,3674,0,32.44,-0.1208191,622.8125,1.04,-1.76,-9.03,3.14,2.71,9.81,1.0625,-0.3125,0.625,32.5,16.68,16.87,97.3,0.5,171.7
0,3701,0,32.44,-0.05947876,622.8125,0.56,-1.77,-11.28,3.14,2.71,9.81,-0.8125,0.4375,-0.25,32.5,16.68,16.87,97.3,0.5,171.6
0,3740,0,32.44,-0.1208191,559.8125,-1.64,-1.1,-7.75,3.14,2.71,9.81,-0.5625,0.125,0.1875,32.87,13.75,16.37,97.3,0.5,171.7
0,3764,0,32.44,-0.1208191,559.8125,0.63,-2.22,-10.16,3.14,2.71,9.81,3.6875,0.125,0.625,32.87,13.75,16.37,97.3,0.5,171.7
0,3831,0,32.44,-0.1208191,559.8125,-0.85,-1.07,-8.98,3.14,2.71,9.81,1.125,1.25,0.25,31.87,10.06,15.06,97.3,0.5,171.7
0,3863,0,32.44,-0.1208191,710.8125,1.05,-1.72,-11.48,3.14,2.71,9.81,1.0,1.125,0.5625,31.87,10.06,15.06,97.3,0.5,171.6
0,3893,0,32.44,-0.1208191,710.8125,-0.02,-1.13,-8.76,3.14,2.71,9.81,-1.4375,-0.5625,-0.25,34.0,8.56,11.0,97.3,0.5,171.7
0,3946,0,32.44,-0.1208191,770.8125,0.15,-1.45,-10.44,3.14,2.71,9.81,-1.1875,0.3125,0.375,37.0,3.75,9.25,97.3,0.5,171.7
0,3980,0,32.44,-0.05947876,770.8125,0.04,-1.16,-8.57,3.14,2.71,9.81,0.3125,0.0,0.0625,38.06,-4.25,7.25,97.3,0.5,171.7
1,18.0,39.0,48.90129,N,73.0,42.0,38.0,E,0.005144,0.0,1.3,3.47,b'ROV',103.0613,3938.0,36.0
0,4032,0,32.44,0.001861572,-14.1875,0.05,-1.25,-8.929999,3.14,2.71,9.81,-2.125,-0.375,0.1875,38.75,-4.25,6.0,97.3,0.5,171.7
0,4064,0,32.45,-0.05947876,-14.1875,-0.18,-1.28,-9.139999,3.14,2.71,9.81,-0.875,0.5,0.0625,38.75,-4.25,6.0,97.3,0.5,171.7
1,18.0,39.0,48.90129,N,73.0,42.0,38.0,E,0.005144,0.0,1.3,3.47,b'VNC',103.0613,3938.0,118.0
0,4101,0,32.45,0.001861572,-14.1875,0.0,-1.73,-9.78,3.14,2.71,9.81,-0.75,-0.8125,0.125,38.5,-4.25,5.18,97.3,0.5,171.7
0,4148,0,32.45,-0.05947876,-89.1875,-0.05,-1.45,-10.42,3.14,2.71,9.81,1.625,0.75,-0.1875,37.37,-4.56,5.25,97.3,0.5,171.7
1,18.0,39.0,48.90129,N,73.0,42.0,38.0,E,0.005144,0.0,1.3,3.47,b'GGA',102.8613,4091.0,50.0
0,4188,0,32.45,-0.05947876,-89.1875,0.04,-1.63,-9.03,3.14,2.71,9.81,-1.3125,-0.3125,0.125,37.5,-2.06,12.25,97.3,0.5,171.7
0,4352,0,32.45,-0.1208191,135.8125,0.03,-1.24,-10.03,3.14,2.71,9.81,-1.4375,-0.0625,0.0,35.87,1.56,12.25,97.3,0.5,171.7
0,4389,0,32.45,-0.05947876,135.8125,-0.03,-1.65,-9.3,3.14,2.71,9.81,-1.125,0.125,0.125,37.0,1.56,13.0,97.3,0.5,171.7
0,4438,0,32.45,-0.1208191,588.8125,0.16,-1.25,-10.13,3.14,2.71,9.81,-0.5625,0.3125,0.125,36.18,0.87,11.75,97.3,0.5,171.7
0,4478,0,32.45,-0.1208191,588.8125,0.03,-1.82,-9.849999,3.14,2.71,9.81,-0.9375,-0.375,0.0625,37.37,0.5,13.5,97.3,0.5,171.7
0,4511,0,32.45,-0.1208191,846.8125,0.03,-1.71,-9.42,3.14,2.71,9.81,-0.75,-0.4375,0.0625,37.37,0.5,13.5,97.3,0.5,171.7
0,4560,0,32.45,-0.1774292,846.8125,-0.13,-1.47,-9.139999,3.14,2.71,9.81,-1.5,0.3125,0.125,36.56,0.5,12.25,97.3,0.5,171.7
0,4590,0,32.45,-0.1774292,339.8125,-0.03,-1.53,-8.97,3.14,2.71,9.81,-1.5,0.375,0.0625,36.56,-0.25,13.75,97.3,0.5,171.7
0,4635,0,32.45,-0.1208191,339.8125,0.11,-1.43,-10.43,3.14,2.71,9.81,1.75,-0.0625,-0.0625,35.5,-0.56,11.75,97.3,0.5,171.7
0,4660,0,32.45,-0.1821289,339.8125,0.07,-1.8,-9.77,3.14,2.71,9.81,-0.625,-0.5625,0.0625,35.5,-0.56,11.75,97.3,0.5,171.7
1,18.0,39.0,48.90129,N,73.0,42.0,38.0,E,0.005144,0.0,1.3,3.47,b'GLL',102.8613,4635.0,24.0
0,4687,0,32.45,-0.1821289,63.8125,-0.03,-1.67,-9.16,3.14,2.71,9.81,-0.9375,-0.125,0.0625,37.37,0.5,10.87,97.3,0.5,171.7
0,4729,0,32.45,-0.1208191,63.8125,0.08,-1.34,-10.56,3.14,2.71,9.81,1.625,-0.0625,-0.0625,37.0,0.5,11.37,97.3,0.5,171.7
0,4751,0,32.45,-0.1208191,63.8125,0.0,-1.66,-9.24,3.14,2.71,9.81,-1.125,-0.125,0.1875,37.0,0.5,11.37,97.3,0.5,171.7
0,4792,0,32.45,-0.05947876,69.8125,0.17,-1.71,-9.71,3.14,2.71,9.81,1.0625,0.125,-0.0625,36.18,0.06,13.06,97.3,0.5,171.7
0,4844,0,32.45,-0.1208191,69.8125,0.009999999,-1.55,-8.98,3.14,2.71,9.81,1.1875,0.0625,0.0625,37.0,1.18,11.75,97.3,0.5,171.6
0,4877,0,32.45,-0.1208191,301.8125,0.25,-1.78,-9.46,3.14,2.71,9.81,1.0,0.0,-0.0625,35.5,0.5,11.25,97.3,0.5,171.6
0,4924,0,32.45,-0.1821289,301.8125,0.04,-1.61,-10.19,3.14,2.71,9.81,-1.0,0.1875,0.0625,36.56,0.06,12.25,97.3,0.5,171.7
0,4960,0,32.45,-0.1208191,301.8125,-0.12,-1.25,-10.55,3.14,2.71,9.81,-1.0625,0.0,0.125,36.56,0.06,12.25,97.3,0.5,171.7
0,5010,0,32.45,-0.1208191,259.8125,0.13,-1.65,-9.74,3.14,2.71,9.81,0.8125,-0.0625,-0.125,37.37,1.18,11.87,97.3,0.5,171.7
1,18.0,39.0,48.88985,N,73.0,42.0,38.0,E,0.074588,0.0,1.3,3.47,b'ROV',102.8613,4937.0,35.0
0,5049,0,32.45,-0.05947876,259.8125,-0.11,-1.49,-10.48,3.14,2.71,9.81,-0.125,0.0625,0.0625,36.56,-0.87,11.5,97.3,0.5,171.6
0,5085,0,32.45,-0.05947876,106.8125,-0.06,-1.42,-10.03,3.14,2.71,9.81,-1.0,-0.1875,0.0,36.18,-2.75,11.0,97.3,0.5,171.7
1,18.0,39.0,48.88985,N,73.0,42.0,38.0,E,0.074588,0.0,1.3,3.47,b'VNC',102.8613,4937.0,123.0
0,5139,0,32.45,-0.1208191,106.8125,0.21,-1.72,-9.309999,3.14,2.71,9.81,0.6875,-0.25,0.0625,37.68,-1.0,10.56,97.3,0.5,171.6
0,5172,0,32.45,-0.1208191,79.8125,0.13,-1.52,-9.0,3.14,2.71,9.81,0.5,0.0625,0.0,37.68,-1.0,10.56,97.3,0.5,171.6
1,18.0,39.0,48.88985,N,73.0,42.0,38.0,E,0.074588,0.0,1.3,3.47,b'GGA',102.8613,5097.0,53.0
0,5225,0,32.45,-0.05947876,79.8125,-0.009999999,-1.36,-10.14,3.14,2.71,9.81,-0.25,0.0625,0.0,37.0,-4.25,11.0,97.3,0.5,171.6
0,5257,0,32.45,-0.1208191,210.8125,-0.09999999,-1.52,-10.11,3.14,2.71,9.81,-0.4375,0.1875,0.125,37.0,-4.25,11.0,97.3,0.5,171.6
0,5295,0,32.45,-0.1821289,210.8125,0.08,-1.4,-9.82,3.14,2.71,9.81,-0.0625,0.3125,0.0625,37.37,-4.25,11.37,97.3,0.5,171.6
0,5343,0,32.45,-0.1821289,313.8125,0.15,-1.69,-9.599999,3.14,2.71,9.81,0.1875,-0.1875,0.0,36.56,-4.56,10.25,97.3,0.5,171.6
0,5382,0,32.45,-0.1821289,313.8125,0.07,-1.6,-9.83,3.14,2.71,9.81,0.3125,0.0,0.0,37.37,-5.0,11.0,97.3,0.5,171.6
0,5431,0,32.46,-0.2434692,313.8125,-0.009999999,-1.39,-10.11,3.14,2.71,9.81,-0.25,-0.1875,0.125,36.18,-3.87,10.25,97.3,0.5,171.6
0,5463,0,32.46,-0.1821289,493.8125,-0.14,-1.57,-10.37,3.14,2.71,9.81,-0.25,-0.125,-0.0625,36.18,-3.87,10.25,97.3,0.5,171.6
0,5496,0,32.46,-0.1821289,493.8125,-0.12,-1.42,-9.679999,3.14,2.71,9.81,-0.3125,0.125,0.0625,37.68,-5.0,9.75,97.3,0.5,171.6
0,5540,0,32.46,-0.1255188,565.8125,0.04,-1.61,-9.59,3.14,2.71,9.81,-0.125,0.5,0.125,37.68,-6.5,9.75,97.3,0.5,171.6
0,5564,0,32.46,-0.1255188,565.8125,-0.07,-1.39,-9.74,3.14,2.71,9.81,-0.375,-0.375,0.0625,37.68,-6.5,9.75,97.3,0.5,171.6
1,18.0,39.0,48.88985,N,73.0,42.0,38.0,E,0.074588,0.0,1.3,3.47,b'GLL',102.8613,5507.0,41.0
0,5606,0,32.46,-0.1255188,565.8125,-0.06,-1.58,-10.39,3.14,2.71,9.81,-0.125,-0.25,0.0,38.06,-6.06,8.5,97.3,0.5,171.6
0,5631,0,32.46,-0.1255188,159.8125,-0.04,-1.4,-9.71,3.14,2.71,9.81,-0.375,-0.4375,0.125,37.0,-7.87,9.37,97.3,0.5,171.6
0,5654,0,32.46,-0.1255188,159.8125,0.09,-1.59,-9.62,3.14,2.71,9.81,0.1875,0.3125,0.0,37.0,-7.87,9.37,97.3,0.5,171.6
0,5696,0,32.46,-0.1255188,159.8125,0.09,-1.44,-9.5,3.14,2.71,9.81,-0.0625,-0.125,0.0625,40.25,-12.37,4.06,97.3,0.5,171.6
0,5721,0,32.46,-0.06417847,159.8125,0.06,-1.55,-9.61,3.14,2.71,9.81,0.25,0.1875,0.0,40.25,-12.37,4.06,97.3,0.5,171.6
0,5759,0,32.46,-0.06417847,120.8125,0.0,-1.61,-9.559999,3.14,2.71,9.81,-0.25,0.0,0.0,40.25,-11.25,2.75,97.3,0.5,171.6
0,5828,0,32.46,-0.1255188,286.8125,0.02,-1.63,-9.66,3.14,2.71,9.81,-0.375,0.0625,0.0,39.87,-13.06,2.25,97.3,0.4,171.6
0,5861,0,32.46,-0.1255188,286.8125,0.0,-1.56,-9.76,3.14,2.71,9.81,0.25,0.5625,0.125,39.87,-13.06,2.25,97.3,0.4,171.6
0,5907,0,32.46,-0.06417847,286.8125,0.07,-1.41,-9.54,3.14,2.71,9.81,-0.3125,0.0625,0.0625,41.0,-15.25,2.25,97.3,0.4,171.6
0,5944,0,32.46,-0.06417847,498.8125,0.07,-1.47,-9.599999,3.14,2.71,9.81,0.0,0.3125,0.0,40.25,-13.37,3.06,97.3,0.4,171.6
0,5979,0,32.46,-0.06417847,498.8125,-0.009999999,-1.51,-9.639999,3.14,2.71,9.81,-0.25,-0.1875,0.125,39.87,-10.06,3.06,97.3,0.4,171.6
1,18.0,39.0,48.87726,N,73.0,42.0,38.0,E,0.020576,0.0,1.3,3.47,b'ROV',102.8613,5937.0,36.0
0,6031,0,32.46,-0.1255188,173.8125,0.03,-1.51,-9.37,3.14,2.71,9.81,0.25,-0.4375,0.0625,39.5,-10.5,4.75,97.3,0.4,171.6
0,6063,0,32.46,-0.06417847,173.8125,0.02,-1.46,-9.429999,3.14,2.71,9.81,-0.0625,-0.125,0.0,39.5,-10.5,4.75,97.3,0.4,171.6
1,18.0,39.0,48.87726,N,73.0,42.0,38.0,E,0.020576,0.0,1.3,3.47,b'VNC',102.8613,5937.0,118.0
0,6116,0,32.46,-0.1255188,195.8125,-0.03,-1.5,-9.79,3.14,2.71,9.81,0.0,-0.0625,0.0625,39.87,-9.75,3.56,97.3,0.4,171.6
0,6151,0,32.46,-0.1255188,195.8125,0.14,-1.46,-9.95,3.14,2.71,9.81,-0.1875,0.0,0.125,39.5,-11.56,3.87,97.3,0.4,171.6
1,18.0,39.0,48.87726,N,73.0,42.0,38.0,E,0.020576,0.0,1.3,3.47,b'GGA',103.3613,6107.0,37.0
0,6203,0,32.46,-0.1868591,250.8125,0.03,-1.39,-9.599999,3.14,2.71,9.81,-0.125,-0.3125,0.0,40.25,-9.75,3.56,97.3,0.4,171.6
0,6236,0,32.46,-0.1868591,250.8125,0.0,-1.53,-9.74,3.14,2.71,9.81,0.375,-0.1875,-0.0625,39.5,-11.25,2.75,97.3,0.4,171.6
0,6277,0,32.46,-0.1255188,250.8125,-0.02,-1.44,-9.719999,3.14,2.71,9.81,0.0,-0.1875,0.0625,39.5,-11.25,2.75,97.3,0.4,171.5
0,6323,0,32.46,-0.1821289,303.8125,0.03,-1.61,-9.55,3.14,2.71,9.81,-0.1875,0.1875,0.0,39.87,-8.68,4.0,97.3,0.4,171.5
0,6358,0,32.46,-0.1868591,303.8125,0.05,-1.5,-9.559999,3.14,2.71,9.81,-0.125,0.0,-0.125,39.87,-10.5,3.56,97.3,0.4,171.5
0,6407,0,32.46,-0.1255188,405.8125,0.04,-1.46,-9.63,3.14,2.71,9.81,0.0625,-0.3125,0.0,39.87,-10.06,3.06,97.3,0.4,171.5
0,6442,0,32.46,-0.1255188,405.8125,0.09999999,-1.58,-9.67,3.14,2.71,9.81,-0.125,-0.0625,0.0,40.25,-10.5,4.06,97.3,0.4,171.5
0,6470,0,32.46,-0.1868591,405.8125,0.05,-1.68,-9.52,3.14,2.71,9.81,0.0,0.1875,0.125,40.25,-10.5,4.06,97.3,0.4,171.5
0,6514,0,32.46,-0.1255188,707.8125,-0.07,-1.52,-9.929999,3.14,2.71,9.81,0.0625,0.0,0.0,40.68,-11.25,4.06,97.3,0.4,171.5
0,6700,0,32.46,-0.1255188,1172.813,-0.04,-1.44,-9.75,3.14,2.71,9.81,-0.375,-0.1875,0.125,39.87,-10.06,3.06,97.3,0.4,171.5
1,18.0,39.0,48.87726,N,73.0,42.0,38.0,E,0.020576,0.0,1.3,3.47,b'GLL',103.3613,6513.0,187.0
0,6728,0,32.46,-0.1255188,1172.813,-0.09,-1.52,-9.809999,3.14,2.71,9.81,0.0625,0.125,-0.0625,39.87,-10.06,3.06,97.3,0.4,171.5
0,6766,0,32.46,-0.06417847,1488.813,-0.03,-1.46,-9.57,3.14,2.71,9.81,-0.375,-0.0625,0.0625,39.5,-10.87,4.37,97.3,0.4,171.5
0,6829,0,32.46,-0.06417847,1488.813,0.14,-1.38,-9.32,3.14,2.71,9.81,-0.25,0.0,0.0625,39.87,-9.37,4.37,97.3,0.4,171.5
0,6861,0,32.46,-0.06417847,1654.813,0.05,-1.51,-9.639999,3.14,2.71,9.81,0.25,0.5625,0.0,39.87,-12.0,4.37,97.3,0.4,171.5
0,6910,0,32.46,-0.06417847,1654.813,-0.02,-1.42,-9.41,3.14,2.71,9.81,-0.25,-0.1875,0.0625,39.5,-9.75,4.5,97.3,0.4,171.5
0,6948,0,32.46,-0.06417847,1479.813,-0.04,-1.61,-10.18,3.14,2.71,9.81,0.1875,-0.0625,-0.125,39.5,-10.5,4.37,97.3,0.4,171.5
0,6999,0,32.46,-0.06417847,1479.813,0.009999999,-1.56,-9.679999,3.14,2.71,9.81,0.0625,0.25,0.0,39.87,-10.5,5.68,97.3,0.4,171.5
1,18.0,39.0,48.8633,N,73.0,42.0,38.0,E,0.0596704,0.0,1.3,3.47,b'ROV',103.3613,6941.0,52.0
0,7037,0,32.46,-0.007568359,1479.813,0.09,-1.46,-9.49,3.14,2.71,9.81,-0.375,0.0,-0.125,39.18,-8.68,5.25,97.3,0.4,171.5
0,7069,0,32.46,-0.007568359,1066.813,-0.009999999,-1.51,-9.719999,3.14,2.71,9.81,0.125,0.5,0.125,39.18,-8.68,5.25,97.3,0.4,171.5
1,18.0,39.0,48.8633,N,73.0,42.0,38.0,E,0.0596704,0.0,1.3,3.47,b'VNC',103.3613,6941.0,120.0
0,7126,0,32.46,-0.06417847,1066.813,-0.02,-1.54,-9.809999,3.14,2.71,9.81,0.0625,-0.1875,-0.125,39.18,-10.87,4.0,97.3,0.3,171.5
0,7156,0,32.46,-0.007568359,840.8125,-0.05,-1.53,-9.74,3.14,2.71,9.81,0.0,-0.1875,-0.0625,39.87,-10.06,4.75,97.3,0.3,171.5
1,18.0,39.0,48.8633,N,73.0,42.0,38.0,E,0.0596704,0.0,1.3,3.47,b'GGA',103.8613,7116.0,33.0
0,7209,0,32.46,-0.007568359,840.8125,-0.009999999,-1.49,-9.679999,3.14,2.71,9.81,-0.125,0.5625,0.0625,40.25,-10.06,5.18,97.3,0.3,171.5
0,7243,0,32.46,-0.06417847,431.8125,0.07,-1.54,-10.22,3.14,2.71,9.81,0.0625,0.25,0.0,38.75,-9.75,3.68,97.3,0.3,171.5
0,7282,0,32.46,-0.06417847,431.8125,0.03,-1.5,-9.73,3.14,2.71,9.81,0.125,0.25,0.125,38.75,-9.75,3.68,97.3,0.3,171.5
0,7328,0,32.47,-0.06890869,431.8125,0.13,-1.42,-9.44,3.14,2.71,9.81,-0.0625,0.25,0.125,39.18,-10.06,3.68,97.3,0.3,171.5
0,7363,0,32.47,-0.06890869,412.8125,0.009999999,-1.58,-9.71,3.14,2.71,9.81,0.25,0.25,0.0625,39.87,-10.5,4.0,97.3,0.3,171.5
0,7412,0,32.47,-0.130249,412.8125,-0.009999999,-1.43,-9.34,3.14,2.71,9.81,-0.375,-0.125,0.0625,39.87,-11.25,4.37,97.3,0.3,171.5
0,7446,0,32.47,-0.130249,618.8125,0.009999999,-1.54,-9.65,3.14,2.71,9.81,0.0625,-0.25,-0.0625,39.5,-9.37,2.87,97.3,0.3,171.5
0,7474,0,32.47,-0.130249,618.8125,0.12,-1.48,-9.469999,3.14,2.71,9.81,-0.1875,-0.375,0.125,39.5,-9.37,2.87,97.3,0.3,171.5
0,7518,0,32.47,-0.06890869,618.8125,0.12,-1.56,-10.45,3.14,2.71,9.81,-0.125,-0.4375,-0.0625,39.5,-10.5,4.06,97.3,0.3,171.5
0,7543,0,32.47,-0.06890869,728.8125,0.09,-1.49,-9.42,3.14,2.71,9.81,-0.25,0.0,-0.0625,39.18,-10.06,4.37,97.3,0.3,171.5
1,18.0,39.0,48.8633,N,73.0,42.0,38.0,E,0.0596704,0.0,1.3,3.48,b'GLL',103.8613,7518.0,25.0
0,7586,0,32.47,-0.06890869,728.8125,0.06,-1.49,-9.7,3.14,2.71,9.81,0.0,-0.125,0.0,39.18,-10.5,4.87,97.3,0.3,171.5
0,7610,0,32.47,-0.007568359,728.8125,0.08,-1.5,-9.55,3.14,2.71,9.81,-0.3125,-0.25,0.0625,39.18,-10.5,4.87,97.3,0.3,171.5
0,7632,0,32.47,-0.007568359,1098.813,0.11,-1.48,-10.07,3.14,2.71,9.81,0.0,-0.375,-0.0625,39.18,-10.5,4.87,97.3,0.3,171.5
0,7672,0,32.47,-0.06890869,1098.813,0.009999999,-1.55,-9.87,3.14,2.71,9.81,-0.1875,0.375,0.0,39.87,-7.87,5.37,97.3,0.3,171.5
0,7699,0,32.47,-0.06890869,1098.813,0.14,-1.49,-10.1,3.14,2.71,9.81,-0.1875,-0.3125,-0.0625,40.68,-9.75,3.56,97.3,0.3,171.5
0,7737,0,32.47,-0.06890869,1342.813,0.06,-1.62,-10.45,3.14,2.71,9.81,0.0625,0.1875,-0.0625,39.18,-10.5,5.25,97.3,0.3,171.5
0,7762,0,32.47,-0.06890869,1342.813,0.08,-1.37,-9.45,3.14,2.71,9.81,-0.0625,0.1875,0.0,39.18,-10.5,5.25,97.3,0.3,171.5
0,7831,0,32.47,-0.06890869,1374.813,0.09,-1.39,-9.36,3.14,2.71,9.81,-0.1875,0.0,0.0625,38.75,-9.06,3.56,97.3,0.3,171.5
0,7879,0,32.47,-0.130249,1374.813,0.08,-1.54,-10.13,3.14,2.71,9.81,0.0,0.1875,-0.0625,39.5,-10.5,3.68,97.3,0.3,171.5
0,7909,0,32.47,-0.06890869,1700.813,0.09999999,-1.46,-10.19,3.14,2.71,9.81,-0.0625,-0.5,0.0,38.37,-6.75,4.37,97.3,0.3,171.5
0,7960,0,32.47,-0.06890869,1700.813,0.0,-1.61,-9.59,3.14,2.71,9.81,-0.1875,0.3125,0.0,39.5,-9.75,4.87,97.3,0.3,171.5
0,7990,0,32.47,-0.06890869,1700.813,0.009999999,-1.54,-9.67,3.14,2.71,9.81,0.1875,-0.0625,0.0625,39.87,-10.06,3.68,97.3,0.3,171.5
1,18.0,39.0,48.85139,N,73.0,42.0,38.0,E,0.1574064,0.0,1.3,3.48,b'ROV',103.8613,7953.0,31.0
0,8025,0,32.47,-0.06890869,1414.813,0.13,-1.53,-10.28,3.14,2.71,9.81,0.0625,-0.3125,0.0625,39.87,-10.06,3.68,97.3,0.3,171.5
0,8078,0,32.47,-0.06890869,1414.813,0.05,-1.57,-9.67,3.14,2.71,9.81,0.0625,0.125,0.0625,40.25,-9.37,4.06,97.3,0.3,171.5
1,18.0,39.0,48.85139,N,73.0,42.0,38.0,E,0.1574064,0.0,1.3,3.48,b'VNC',103.8613,7953.0,117.0
0,8115,0,32.47,-0.06890869,1177.813,0.09999999,-1.4,-9.45,3.14,2.71,9.81,-0.125,-0.1875,0.125,39.87,-10.5,4.87,97.3,0.3,171.5
0,8165,0,32.47,-0.01229858,1177.813,0.11,-1.55,-10.48,3.14,2.71,9.81,0.0,0.0,0.0,39.87,-8.68,4.5,97.3,0.3,171.5
1,18.0,39.0,48.85139,N,73.0,42.0,38.0,E,0.1574064,0.0,1.3,3.48,b'GGA',104.7614,8105.0,53.0
0,8205,0,32.47,-0.01229858,1115.813,0.05,-1.5,-9.929999,3.14,2.71,9.81,0.0625,-0.25,-0.0625,40.25,-10.06,3.18,97.3,0.3,171.5
0,8240,0,32.47,-0.01229858,1115.813,0.13,-1.57,-10.48,3.14,2.71,9.81,0.125,0.1875,0.125,39.87,-10.06,4.06,97.3,0.3,171.5
0,8292,0,32.47,-0.01229858,754.8125,0.04,-1.47,-9.639999,3.14,2.71,9.81,0.0625,0.1875,-0.1875,39.87,-10.06,3.68,97.3,0.3,171.5
0,8323,0,32.47,-0.01229858,754.8125,0.09,-1.48,-9.5,3.14,2.71,9.81,-0.125,-0.125,0.0625,39.87,-10.06,3.68,97.3,0.3,171.5
0,8375,0,32.47,-0.01229858,551.8125,0.08,-1.59,-10.53,3.14,2.71,9.81,-0.1875,0.0625,0.0,40.25,-10.06,3.18,97.3,0.3,171.5
0,8410,0,32.47,-0.01229858,551.8125,0.0,-1.47,-9.83,3.14,2.71,9.81,-0.0625,-0.3125,-0.0625,39.5,-8.68,3.56,97.3,0.3,171.5
0,8443,0,32.47,-0.01229858,551.8125,0.07,-1.61,-10.51,3.14,2.71,9.81,0.125,0.0625,0.125,40.68,-10.06,5.25,97.3,0.3,171.5
0,8489,0,32.47,-0.06890869,597.8125,0.09999999,-1.46,-10.17,3.14,2.71,9.81,0.375,0.375,0.0625,38.75,-9.37,3.68,97.3,0.3,171.5
0,8522,0,32.47,-0.06890869,597.8125,0.08,-1.56,-10.07,3.14,2.71,9.81,0.0,0.0,0.0,38.75,-9.37,3.68,97.3,0.3,171.5
0,8564,0,32.47,-0.06890869,671.8125,-0.009999999,-1.54,-9.69,3.14,2.71,9.81,0.25,0.4375,0.0,39.18,-9.75,3.68,97.3,0.3,171.5
0,8593,0,32.47,-0.130249,671.8125,0.08,-1.55,-10.1,3.14,2.71,9.81,0.125,-0.0625,-0.0625,40.25,-9.75,3.68,97.3,0.3,171.5
0,8618,0,32.47,-0.130249,671.8125,0.09999999,-1.38,-9.42,3.14,2.71,9.81,-0.25,-0.0625,0.125,40.25,-9.75,3.68,97.3,0.3,171.5
1,18.0,39.0,48.85139,N,73.0,42.0,38.0,E,0.1574064,0.0,1.3,3.48,b'GLL',104.7614,8592.0,25.0
0,8660,0,32.47,-0.130249,808.8125,0.0,-1.62,-10.28,3.14,2.71,9.81,-0.125,0.125,0.0,40.25,-9.37,3.25,97.3,0.3,171.5
0,8684,0,32.47,-0.130249,808.8125,0.09,-1.37,-9.41,3.14,2.71,9.81,-0.1875,-0.125,0.0625,40.25,-9.37,3.25,97.3,0.3,171.5
0,8723,0,32.47,-0.130249,808.8125,-0.009999999,-1.65,-10.23,3.14,2.71,9.81,0.0625,-0.0625,0.0,41.0,-10.06,4.06,97.3,0.3,171.5
0,8745,0,32.47,-0.130249,1142.813,-0.03,-1.6,-9.63,3.14,2.71,9.81,-0.125,0.375,0.0625,39.5,-9.06,4.5,97.3,0.3,171.5
0,8772,0,32.47,-0.130249,1142.813,0.08,-1.51,-10.21,3.14,2.71,9.81,0.125,0.0,-0.0625,39.5,-9.06,4.5,97.3,0.3,171.5
0,8936,0,32.47,-0.1915894,1020.813,-0.11,-1.58,-10.08,3.14,2.71,9.81,0.1875,-0.125,0.0625,40.25,-9.37,4.87,97.3,0.3,171.5
0,8984,0,32.48,-0.2528992,1020.813,0.06,-1.48,-9.969999,3.14,2.71,9.81,-0.125,-0.375,-0.0625,39.87,-9.37,4.87,97.3,0.3,171.5
0,9014,0,32.48,-0.2528992,1020.813,0.09999999,-1.6,-10.53,3.14,2.71,9.81,-0.0625,-0.125,0.1875,39.87,-8.25,4.37,97.3,0.3,171.5
0,9050,0,32.47,-0.130249,1060.813,-0.03,-1.53,-9.84,3.14,2.71,9.81,-0.0625,-0.5,0.0625,39.5,-10.5,2.75,97.3,0.3,171.5
0,9099,0,32.48,-0.1915894,1060.813,0.04,-1.53,-9.91,3.14,2.71,9.81,0.0,0.5625,0.0625,39.87,-9.37,4.87,97.3,0.3,171.5
1,18.0,39.0,48.84544,N,73.0,42.0,38.0,E,0.1075096,0.0,1.3,3.48,b'ROV',104.7614,9042.0,51.0
0,9137,0,32.48,-0.1915894,811.8125,-0.009999999,-1.54,-9.69,3.14,2.71,9.81,0.125,0.0625,-0.0625,39.87,-9.37,4.87,97.3,0.3,171.5
0,9185,0,32.47,-0.06890869,811.8125,-0.06,-1.46,-9.7,3.14,2.71,9.81,-0.1875,-0.375,0.0625,39.5,-9.06,3.25,97.3,0.3,171.5
1,18.0,39.0,48.84544,N,73.0,42.0,38.0,E,0.1075096,0.0,1.3,3.48,b'VNC',104.7614,9042.0,135.0
0,9221,0,32.47,-0.06890869,670.8125,-0.07,-1.53,-9.75,3.14,2.71,9.81,0.0625,0.25,0.0,40.25,-8.68,4.87,97.3,0.3,171.5
0,9255,0,32.47,-0.06890869,670.8125,-0.07,-1.47,-9.66,3.14,2.71,9.81,-0.1875,-0.375,0.125,39.87,-8.68,3.68,97.3,0.3,171.5
1,18.0,39.0,48.84544,N,73.0,42.0,38.0,E,0.1075096,0.0,1.04,3.48,b'GGA',105.5613,9211.0,37.0
0,9307,0,32.48,-0.130249,670.8125,0.09,-1.55,-10.28,3.14,2.71,9.81,-0.125,0.375,0.125,39.18,-10.06,3.68,97.3,0.3,171.5
0,9338,0,32.48,-0.1915894,667.8125,0.09,-1.51,-10.21,3.14,2.71,9.81,0.125,-0.0625,-0.0625,39.18,-10.06,3.68,97.3,0.3,171.5
0,9390,0,32.48,-0.130249,667.8125,-0.009999999,-1.57,-9.65,3.14,2.71,9.81,-0.25,-0.125,0.125,39.18,-9.37,3.68,97.3,0.3,171.5
0,9420,0,32.48,-0.1915894,673.8125,0.05,-1.5,-9.8,3.14,2.71,9.81,0.1875,0.5625,0.0,39.87,-9.06,4.5,97.3,0.3,171.5
0,9462,0,32.48,-0.1915894,673.8125,-0.009999999,-1.56,-9.71,3.14,2.71,9.81,-0.3125,0.0625,0.0625,39.87,-9.37,3.68,97.3,0.3,171.5
0,9511,0,32.48,-0.1915894,602.8125,-0.08,-1.61,-10.13,3.14,2.71,9.81,-0.1875,0.0,0.0625,39.87,-9.06,5.37,97.3,0.3,171.5
0,9546,0,32.48,-0.1915894,602.8125,0.03,-1.51,-9.98,3.14,2.71,9.81,-0.0625,0.0625,-0.0625,39.18,-10.87,3.25,97.3,0.3,171.5
0,9589,0,32.48,-0.1915894,602.8125,0.15,-1.58,-10.52,3.14,2.71,9.81,0.125,-0.1875,0.0,39.18,-10.87,3.25,97.3,0.3,171.5
0,9620,0,32.48,-0.1915894,552.8125,0.0,-1.51,-9.889999,3.14,2.71,9.81,-0.125,-0.125,0.0,39.87,-9.75,4.06,97.3,0.3,171.5
0,9652,0,32.48,-0.3142395,552.8125,-0.06,-1.57,-9.98,3.14,2.71,9.81,0.0,-0.125,0.125,39.5,-9.37,4.06,97.3,0.3,171.5
0,9697,0,32.48,-0.2528992,733.8125,0.09999999,-1.49,-10.13,3.14,2.71,9.81,0.25,-0.125,-0.0625,39.5,-9.37,4.06,97.3,0.3,171.5
0,9721,0,32.48,-0.3142395,733.8125,-0.04,-1.58,-9.889999,3.14,2.71,9.81,0.0,-0.0625,0.0625,39.5,-9.37,4.06,97.3,0.3,171.5
1,18.0,39.0,48.84544,N,73.0,42.0,38.0,E,0.1075096,0.0,1.04,2.68,b'GLL',105.5613,9696.0,25.0
0,9764,0,32.48,-0.2528992,733.8125,-0.05,-1.5,-9.79,3.14,2.71,9.81,0.375,0.0625,0.0,40.68,-7.56,4.56,97.3,0.3,171.5
0,9833,0,32.48,-0.2528992,954.8125,-0.07,-1.49,-9.77,3.14,2.71,9.81,-0.0625,-0.0625,0.0625,39.87,-9.75,3.25,97.3,0.3,171.5
0,9868,0,32.48,-0.3142395,954.8125,0.0,-1.64,-10.42,3.14,2.71,9.81,0.125,-0.1875,0.0625,39.5,-9.37,5.37,97.3,0.3,171.5
0,9914,0,32.48,-0.2528992,1442.813,0.09999999,-1.45,-10.26,3.14,2.71,9.81,0.0625,-0.375,-0.0625,39.18,-9.75,4.37,97.3,0.3,171.5
0,9952,0,32.48,-0.2528992,1442.813,0.07,-1.52,-10.24,3.14,2.71,9.81,0.0,0.1875,0.125,39.87,-9.75,5.75,97.3,0.3,171.5
0,10002,0,32.48,-0.1962891,1260.813,-0.03,-1.52,-9.7,3.14,2.71,9.81,0.125,0.0625,0.125,40.68,-9.0,4.06,97.3,0.3,171.5
1,18.0,39.0,48.83629,N,73.0,42.0,38.0,E,0.0534976,0.0,1.04,2.68,b'ROV',105.5613,9945.0,50.0
0,10041,0,32.48,-0.1962891,1260.813,-0.04,-1.44,-9.429999,3.14,2.71,9.81,-0.1875,0.0,0.0625,40.68,-9.0,4.06,97.3,0.3,171.5
0,10074,0,32.48,-0.1962891,773.8125,0.0,-1.5,-9.71,3.14,2.71,9.81,0.1875,0.0,0.0625,40.68,-10.06,4.5,97.3,0.3,171.5
1,18.0,39.0,48.83629,N,73.0,42.0,38.0,E,0.0534976,0.0,1.04,2.68,b'VNC',105.5613,9945.0,121.0
0,10129,0,32.48,-0.1962891,773.8125,0.04,-1.47,-9.92,3.14,2.71,9.81,0.1875,0.375,0.0625,39.5,-9.06,3.68,97.3,0.3,171.5
0,10159,0,32.48,-0.1962891,773.8125,0.12,-1.55,-10.49,3.14,2.71,9.81,0.125,-0.125,0.125,39.18,-10.06,3.75,97.3,0.3,171.5
1,18.0,39.0,48.83629,N,73.0,42.0,38.0,E,0.0534976,0.0,1.04,2.68,b'GGA',106.5613,10119.0,34.0
0,10211,0,32.48,-0.1962891,806.8125,0.03,-1.5,-9.69,3.14,2.71,9.81,0.25,0.25,-0.0625,39.18,-9.75,4.06,97.3,0.3,171.5
0,10245,0,32.48,-0.1962891,806.8125,0.02,-1.56,-9.82,3.14,2.71,9.81,-0.1875,0.0625,0.125,39.18,-9.75,4.06,97.3,0.3,171.5
0,10283,0,32.48,-0.1962891,902.8125,0.09,-1.48,-9.62,3.14,2.71,9.81,0.125,0.125,0.0625,39.5,-9.37,4.18,97.3,0.3,171.5
0,10335,0,32.48,-0.1349487,902.8125,-0.04,-1.53,-9.84,3.14,2.71,9.81,-0.1875,-0.1875,0.0625,39.87,-8.68,5.0,97.3,0.3,171.5
0,10373,0,32.48,-0.07363892,866.8125,0.08,-1.59,-10.43,3.14,2.71,9.81,0.0,-0.25,-0.0625,39.87,-8.68,4.56,97.3,0.3,171.5
0,10423,0,32.48,-0.07363892,866.8125,0.07,-1.51,-9.58,3.14,2.71,9.81,0.125,0.375,0.0,39.18,-9.0,4.56,97.3,0.3,171.5
0,10457,0,32.48,-0.07363892,813.8125,0.04,-1.54,-10.14,3.14,2.71,9.81,-0.0625,0.3125,0.125,39.5,-9.06,4.5,97.3,0.3,171.5
0,10487,0,32.48,-0.07363892,813.8125,0.12,-1.49,-10.23,3.14,2.71,9.81,0.0625,-0.375,-0.0625,39.5,-9.06,4.5,97.3,0.3,171.5
0,10536,0,32.48,-0.01699829,813.8125,0.09999999,-1.4,-9.46,3.14,2.71,9.81,-0.0625,-0.125,0.125,39.87,-9.06,5.37,97.3,0.3,171.5
0,10566,0,32.48,-0.07363892,910.8125,0.04,-1.52,-9.62,3.14,2.71,9.81,0.1875,0.4375,0.0625,40.25,-7.56,4.06,97.3,0.3,171.5
0,10611,0,32.49,-0.1349487,910.8125,-0.03,-1.44,-9.42,3.14,2.71,9.81,-0.1875,-0.4375,0.125,39.5,-8.25,5.37,97.3,0.3,171.5
0,10635,0,32.49,-0.1349487,905.8125,0.06,-1.57,-9.63,3.14,2.71,9.81,0.125,0.375,0.125,39.5,-8.25,5.37,97.3,0.3,171.5
1,18.0,39.0,48.83629,N,73.0,42.0,38.0,E,0.0534976,0.0,1.04,2.68,b'GLL',106.5613,10610.0,25.0
0,10663,0,32.49,-0.1349487,905.8125,0.12,-1.54,-10.42,3.14,2.71,9.81,0.0625,-0.0625,0.0,40.25,-9.06,5.37,97.3,0.3,171.5
0,10704,0,32.49,-0.2576294,905.8125,0.02,-1.57,-9.66,3.14,2.71,9.81,0.375,0.1875,0.0625,40.68,-8.68,4.06,97.3,0.3,171.5
0,10731,0,32.49,-0.2576294,905.8125,0.13,-1.52,-10.47,3.14,2.71,9.81,-0.0625,-0.25,0.125,40.68,-8.68,4.06,97.3,0.3,171.5
0,10769,0,32.49,-0.3189697,1021.813,0.02,-1.53,-10.05,3.14,2.71,9.81,0.1875,0.5625,0.0,40.25,-8.68,3.75,97.3,0.3,171.5
0,10834,0,32.49,-0.3189697,1308.813,0.04,-1.52,-10.04,3.14,2.71,9.81,-0.3125,-0.125,0.0625,39.87,-9.75,4.06,97.3,0.3,171.5
0,10869,0,32.49,-0.3189697,1308.813,-0.08,-1.61,-9.9,3.14,2.71,9.81,0.0625,0.0,-0.125,39.87,-9.0,4.18,97.3,0.3,171.5
0,10917,0,32.49,-0.3189697,1308.813,0.11,-1.47,-10.08,3.14,2.71,9.81,0.1875,-0.0625,-0.0625,39.5,-9.0,4.56,97.3,0.3,171.5
0,10955,0,32.49,-0.3189697,1648.813,0.05,-1.54,-9.469999,3.14,2.71,9.81,0.0,0.5,0.0625,39.87,-8.68,5.87,97.3,0.3,171.5
0,11006,0,32.49,-0.2576294,1648.813,-0.11,-1.55,-9.83,3.14,2.71,9.81,0.0625,0.0,0.0625,40.68,-9.37,3.68,97.3,0.3,171.5
1,18.0,39.0,48.82553,N,73.0,42.0,38.0,E,0.0118312,0.0,1.04,2.68,b'ROV',106.5613,10948.0,52.0
0,11044,0,32.49,-0.2576294,1296.813,-0.03,-1.53,-9.76,3.14,2.71,9.81,-0.1875,-0.125,0.1875,40.68,-9.37,3.68,97.3,0.3,171.5
0,11077,0,32.49,-0.3189697,1296.813,-0.11,-1.54,-9.83,3.14,2.71,9.81,0.1875,0.0625,0.0,39.87,-8.68,4.56,97.3,0.3,171.5
1,18.0,39.0,48.82553,N,73.0,42.0,38.0,E,0.0118312,0.0,1.04,2.68,b'VNC',106.5613,10948.0,121.0
0,11259,0,32.49,-0.2576294,1376.813,-0.04,-1.42,-9.49,3.14,2.71,9.81,-0.0625,-0.375,-0.0625,39.87,-9.37,3.75,97.3,0.3,171.5
0,11309,0,32.49,-0.1962891,1558.813,0.009999999,-1.6,-9.71,3.14,2.71,9.81,-0.0625,0.25,0.125,39.87,-9.37,4.06,97.3,0.3,171.5
1,18.0,39.0,48.82553,N,73.0,42.0,38.0,E,0.0118312,0.0,1.04,2.68,b'GGA',107.1613,11249.0,54.0
0,11349,0,32.49,-0.1962891,1558.813,0.02,-1.6,-9.69,3.14,2.71,9.81,0.125,0.125,0.0625,39.87,-9.37,4.06,97.3,0.3,171.5
0,11396,0,32.49,-0.1349487,1583.813,-0.06,-1.39,-9.49,3.14,2.71,9.81,-0.1875,0.0,0.0,40.68,-9.06,4.5,97.3,0.3,171.5
0,11433,0,32.49,-0.07833862,1583.813,0.02,-1.5,-9.599999,3.14,2.71,9.81,0.125,-0.25,0.0625,40.25,-9.37,5.87,97.3,0.3,171.5
0,11464,0,32.49,-0.07833862,1583.813,0.09,-1.47,-9.5,3.14,2.71,9.81,-0.1875,-0.3125,0.0,38.75,-7.56,4.56,97.3,0.3,171.5
0,11515,0,32.49,-0.1349487,1287.813,-0.009999999,-1.54,-9.9,3.14,2.71,9.81,-0.0625,0.3125,0.0,39.18,-9.37,4.87,97.3,0.3,171.5
0,11546,0,32.49,-0.1349487,1287.813,0.02,-1.54,-9.87,3.14,2.71,9.81,0.0,-0.4375,-0.0625,39.18,-9.37,4.87,97.3,0.3,171.5
0,11594,0,32.49,-0.1349487,1068.813,0.009999999,-1.53,-9.92,3.14,2.71,9.81,-0.25,-0.0625,0.0625,39.87,-8.68,5.75,97.3,0.3,171.5
0,11836,0,32.49,-0.07833862,1039.813,0.0,-1.48,-9.8,3.14,2.71,9.81,0.1875,0.3125,-0.0625,40.25,-9.37,4.56,97.3,0.3,171.5
0,11866,0,32.49,-0.07833862,1484.813,-0.02,-1.66,-10.09,3.14,2.71,9.81,0.0625,-0.375,0.0,39.87,-9.37,4.18,97.3,0.3,171.5
0,11908,0,32.49,-0.07833862,1484.813,0.07,-1.53,-9.719999,3.14,2.71,9.81,0.1875,0.1875,-0.125,39.5,-8.68,4.18,97.3,0.3,171.5
0,11938,0,32.49,-0.07833862,1484.813,-0.05,-1.62,-10.22,3.14,2.71,9.81,0.0,-0.375,0.0,39.5,-8.68,4.18,97.3,0.3,171.5
0,11982,0,32.49,-0.07833862,1638.813,0.09,-1.51,-10.01,3.14,2.71,9.81,0.0,-0.1875,0.0625,40.56,-7.18,4.18,97.3,0.3,171.5
0,12020,0,32.49,-0.07833862,1638.813,-0.03,-1.54,-9.76,3.14,2.71,9.81,0.0625,0.4375,-0.0625,41.0,-9.0,3.37,97.3,0.3,171.5
0,12054,0,32.49,-0.01699829,1368.813,0.12,-1.47,-10.05,3.14,2.71,9.81,0.1875,0.125,0.0625,40.25,-9.0,4.18,97.3,0.3,171.5
1,18.0,39.0,48.82553,N,73.0,42.0,38.0,E,0.0118312,0.0,1.04,2.69,b'VNC',107.1613,11249.0,797.0
0,12109,0,32.49,-0.07833862,1368.813,0.0,-1.37,-9.36,3.14,2.71,9.81,-0.25,-0.125,0.1875,39.87,-9.37,3.75,97.3,0.3,171.5
0,12139,0,32.49,-0.07833862,1368.813,0.08,-1.46,-9.61,3.14,2.71,9.81,-0.0625,0.125,0.0,39.87,-9.37,3.75,97.3,0.3,171.5
1,18.0,39.0,48.81729,N,73.0,42.0,38.0,E,0.0118312,0.0,1.04,2.69,b'GGA',107.7614,12099.0,34.0
0,12192,0,32.5,-0.139679,1493.813,0.11,-1.46,-10.09,3.14,2.71,9.81,0.0625,-0.375,-0.0625,39.87,-8.68,4.18,97.3,0.3,171.5
0,12227,0,32.5,-0.139679,1493.813,-0.09,-1.54,-9.78,3.14,2.71,9.81,0.0625,-0.0625,0.0,39.87,-8.25,4.5,97.3,0.3,171.5
0,12263,0,32.5,-0.139679,1535.813,0.13,-1.47,-10.13,3.14,2.71,9.81,0.0,-0.4375,0.0,39.87,-9.0,3.75,97.3,0.3,171.5
0,12313,0,32.5,-0.139679,1535.813,0.009999999,-1.57,-9.71,3.14,2.71,9.81,-0.375,0.5,0.0,39.5,-9.0,3.37,97.3,0.3,171.5
0,12352,0,32.5,-0.139679,1492.813,0.05,-1.49,-9.49,3.14,2.71,9.81,-0.0625,0.0625,0.0,39.5,-9.0,3.37,97.3,0.3,171.5
0,12398,0,32.5,-0.139679,1492.813,0.11,-1.37,-9.37,3.14,2.71,9.81,-0.1875,-0.4375,0.0625,40.56,-6.75,4.56,97.3,0.3,171.5
0,12430,0,32.5,-0.2010193,1492.813,0.03,-1.53,-9.679999,3.14,2.71,9.81,0.0,-0.25,0.0,40.68,-9.75,4.56,97.3,0.3,171.5
0,12457,0,32.5,-0.2010193,1416.813,-0.009999999,-1.55,-9.7,3.14,2.71,9.81,-0.1875,-0.1875,0.0,39.5,-8.56,3.75,97.3,0.3,171.5
0,12505,0,32.5,-0.2623596,1416.813,0.03,-1.52,-9.559999,3.14,2.71,9.81,0.125,-0.0625,0.0625,39.5,-8.56,3.75,97.3,0.3,171.5
0,12534,0,32.5,-0.2623596,1381.813,0.08,-1.38,-9.5,3.14,2.71,9.81,-0.125,0.0625,-0.0625,40.25,-8.68,5.87,97.3,0.3,171.5
0,12579,0,32.5,-0.2623596,1381.813,0.09,-1.57,-10.5,3.14,2.71,9.81,0.0625,-0.3125,0.0625,40.25,-7.56,4.18,97.3,0.3,171.5
0,12604,0,32.5,-0.2623596,1381.813,0.09999999,-1.53,-9.55,3.14,2.71,9.81,-0.1875,0.125,0.0,40.25,-7.56,4.18,97.3,0.3,171.5
1,18.0,39.0,48.81729,N,73.0,42.0,38.0,E,0.0118312,0.0,1.04,2.69,b'GLL',107.7614,12579.0,24.0
0,12628,0,32.5,-0.2010193,1087.813,0.09999999,-1.52,-9.99,3.14,2.71,9.81,0.125,0.3125,0.0625,40.25,-9.37,3.37,97.3,0.3,171.5
0,12668,0,32.5,-0.2623596,1087.813,-0.03,-1.56,-9.889999,3.14,2.71,9.81,-0.0625,-0.125,0.0625,39.87,-9.37,5.06,97.3,0.3,171.5
0,12692,0,32.5,-0.3189697,1087.813,0.12,-1.52,-9.969999,3.14,2.71,9.81,-0.1875,-0.125,0.0,39.87,-9.37,5.06,97.3,0.3,171.5
0,12731,0,32.5,-0.3189697,954.8125,0.0,-1.58,-9.84,3.14,2.71,9.81,0.3125,0.0625,-0.0625,39.87,-6.06,2.87,97.3,0.3,171.5
0,12756,0,32.5,-0.3189697,954.8125,0.06,-1.34,-9.34,3.14,2.71,9.81,-0.1875,-0.0625,0.125,39.87,-6.06,2.87,97.3,0.3,171.5
0,12782,0,32.5,-0.3189697,954.8125,0.07,-1.53,-9.67,3.14,2.71,9.81,0.0,-0.25,0.0,39.18,-9.37,4.18,97.3,0.3,171.5
0,12863,0,32.5,-0.3189697,1171.813,0.04,-1.53,-10.37,3.14,2.71,9.81,0.0625,-0.25,0.25,40.56,-10.06,3.75,97.3,0.3,171.5
0,12899,0,32.5,-0.3189697,1171.813,0.11,-1.35,-9.36,3.14,2.71,9.81,-0.1875,-0.4375,0.1875,40.56,-10.06,3.75,97.3,0.3,171.5
0,12931,0,32.5,-0.3189697,1526.813,0.02,-1.68,-10.33,3.14,2.71,9.81,-0.0625,0.0,0.0,41.0,-8.25,4.06,97.3,0.3,171.5
0,12983,0,32.5,-0.2623596,1526.813,0.009999999,-1.53,-9.71,3.14,2.71,9.81,0.125,-0.0625,0.0625,41.0,-8.68,5.75,97.3,0.3,171.5
0,13015,0,32.51,-0.2623596,1197.813,0.09,-1.53,-10.08,3.14,2.71,9.81,-0.125,-0.125,-0.125,41.0,-8.25,3.75,97.3,0.3,171.5
1,18.0,39.0,48.81065,N,73.0,42.0,38.0,E,0.03858,0.0,1.04,2.69,b'ROV',107.7614,12959.0,31.0
0,13070,0,32.51,-0.2623596,1197.813,0.09,-1.62,-9.559999,3.14,2.71,9.81,0.0625,-0.125,-0.0625,39.87,-7.87,3.37,97.3,0.3,171.5
0,13103,0,32.51,-0.2623596,1345.813,0.09,-1.42,-9.49,3.14,2.71,9.81,-0.0625,-0.1875,0.0625,39.87,-7.87,3.37,97.3,0.3,171.5
1,18.0,39.0,48.81065,N,73.0,42.0,38.0,E,0.03858,0.0,1.04,2.69,b'VNC',107.7614,12959.0,119.0
0,13139,0,32.51,-0.2010193,1345.813,0.06,-1.56,-9.57,3.14,2.71,9.81,0.0625,-0.1875,0.125,39.87,-9.37,3.37,97.3,0.3,171.5
0,13187,0,32.51,-0.2010193,1424.813,0.16,-1.52,-10.18,3.14,2.71,9.81,-0.3125,0.125,0.0625,40.56,-6.37,3.75,97.3,0.3,171.5
1,18.0,39.0,48.81065,N,73.0,42.0,38.0,E,0.03858,0.0,1.04,2.69,b'GGA',108.3613,13113.0,35.0
0,13227,0,32.51,-0.1444092,1424.813,0.09,-1.5,-10.33,3.14,2.71,9.81,-0.0625,-0.25,0.0625,39.5,-9.37,4.25,97.3,0.3,171.5
0,13276,0,32.51,-0.1444092,1424.813,0.07,-1.49,-9.57,3.14,2.71,9.81,0.125,0.375,0.0,40.56,-9.0,5.87,97.3,0.3,171.5
0,13316,0,32.51,-0.1444092,1191.813,0.11,-1.45,-9.58,3.14,2.71,9.81,-0.25,0.0625,-0.0625,39.87,-7.56,4.25,97.3,0.3,171.5
0,13351,0,32.51,-0.1444092,1191.813,0.06,-1.53,-9.57,3.14,2.71,9.81,-0.125,0.0,0.0625,39.87,-7.56,4.25,97.3,0.3,171.5
0,13406,0,32.51,-0.2010193,1133.813,0.08,-1.5,-9.86,3.14,2.71,9.81,0.0625,0.3125,0.0625,39.87,-7.87,5.37,97.3,0.3,171.5
0,13436,0,32.51,-0.205719,1133.813,0.11,-1.57,-10.45,3.14,2.71,9.81,0.0625,0.0,-0.0625,40.56,-7.18,3.37,97.3,0.3,171.5
0,13486,0,32.51,-0.205719,1046.813,0.02,-1.57,-9.67,3.14,2.71,9.81,0.0625,-0.25,0.0625,40.56,-9.0,4.68,97.3,0.3,171.5
0,13517,0,32.51,-0.205719,1046.813,0.0,-1.49,-9.78,3.14,2.71,9.81,-0.125,-0.0625,0.0,39.87,-8.56,4.56,97.3,0.3,171.5
0,13553,0,32.51,-0.205719,1046.813,0.09,-1.52,-10.07,3.14,2.71,9.81,-0.0625,0.0,0.0625,39.87,-8.56,4.56,97.3,0.3,171.5
0,13596,0,32.51,-0.205719,1083.813,0.07,-1.52,-9.49,3.14,2.71,9.81,-0.25,-0.1875,0.125,39.87,-8.68,3.75,97.3,0.3,171.5
0,13627,0,32.52,-0.2670593,1083.813,0.009999999,-1.58,-9.59,3.14,2.71,9.81,0.0,0.0,0.0625,39.87,-7.87,4.25,97.3,0.3,171.5
0,13669,0,32.52,-0.2670593,1097.813,0.05,-1.49,-9.58,3.14,2.71,9.81,-0.25,-0.25,0.0625,39.5,-8.25,4.18,97.3,0.3,171.5
1,18.0,39.0,48.81065,N,73.0,42.0,38.0,E,0.03858,0.0,1.04,2.69,b'GLL',108.3613,13610.0,27.0
0,13859,0,32.52,-0.1491089,1687.813,-0.06,-1.7,-10.17,3.14,2.71,9.81,0.125,-0.1875,0.0625,40.56,-9.0,3.75,97.3,0.3,171.5
0,13883,0,32.52,-0.1491089,1687.813,0.0,-1.51,-9.71,3.14,2.71,9.81,-0.25,-0.4375,0.125,39.5,-7.87,3.0,97.3,0.3,171.5
0,13932,0,32.52,-0.08776855,1687.813,-0.07,-1.57,-10.2,3.14,2.71,9.81,-0.0625,-0.0625,0.0,39.5,-7.87,3.75,97.3,0.3,171.5
0,13964,0,32.52,-0.1538391,2152.813,-0.02,-1.4,-9.52,3.14,2.71,9.81,0.1875,-0.5625,-0.0625,40.56,-9.0,3.87,97.3,0.3,171.5
0,14002,0,32.52,-0.09249878,2152.813,-0.07,-1.7,-10.02,3.14,2.71,9.81,0.0625,0.0625,-0.0625,40.56,-9.0,3.87,97.3,0.3,171.5
0,14050,0,32.52,-0.09249878,1696.813,0.09,-1.45,-9.99,3.14,2.71,9.81,0.25,0.3125,-0.125,39.87,-8.68,4.56,97.3,0.3,171.5
1,18.0,39.0,48.80699,N,73.0,42.0,38.0,E,0.1892992,0.0,1.04,2.69,b'ROV',108.3613,13978.0,34.0
0,14090,0,32.52,-0.1538391,1696.813,-0.02,-1.58,-9.65,3.14,2.71,9.81,0.0625,0.375,-0.0625,39.87,-9.37,5.5,97.3,0.3,171.5
0,14141,0,32.52,-0.2104492,1595.813,-0.09999999,-1.56,-9.79,3.14,2.71,9.81,0.0,0.0,0.0,40.25,-9.0,4.25,97.3,0.3,171.5
1,18.0,39.0,48.80699,N,73.0,42.0,38.0,E,0.1892992,0.0,1.04,2.69,b'VNC',108.3613,13978.0,124.0
0,14181,0,32.52,-0.2717896,1595.813,0.009999999,-1.62,-9.889999,3.14,2.71,9.81,-0.0625,-0.125,0.0,40.25,-8.25,4.56,97.3,0.3,171.5
0,14218,0,32.52,-0.2104492,1595.813,0.05,-1.56,-10.45,3.14,2.71,9.81,-0.125,-0.375,-0.125,39.5,-9.0,3.06,97.3,0.3,171.5
1,18.0,39.0,48.80699,N,73.0,42.0,38.0,E,0.1892992,0.0,1.04,2.69,b'GGA',109.4614,14155.0,37.0
0,14271,0,32.52,-0.2104492,1387.813,0.03,-1.48,-9.54,3.14,2.71,9.81,-0.0625,0.0625,0.0625,40.56,-9.0,5.37,97.3,0.3,171.5
0,14306,0,32.52,-0.1538391,1387.813,0.009999999,-1.5,-10.02,3.14,2.71,9.81,0.0,-0.125,0.0625,40.56,-9.0,5.37,97.3,0.3,171.5
0,14358,0,32.52,-0.1538391,1203.813,-0.02,-1.57,-10.32,3.14,2.71,9.81,0.0,-0.125,0.0,40.25,-8.56,3.75,97.3,0.3,171.5
0,14389,0,32.52,-0.1538391,1203.813,-0.04,-1.43,-9.679999,3.14,2.71,9.81,-0.1875,0.125,0.0625,39.5,-8.25,5.5,97.3,0.3,171.5
0,14429,0,32.52,-0.1538391,1184.813,-0.05,-1.68,-10.18,3.14,2.71,9.81,0.125,0.0625,0.0,39.5,-9.0,4.56,97.3,0.3,171.5
0,14477,0,32.52,-0.1538391,1184.813,0.09,-1.57,-10.14,3.14,2.71,9.81,0.1875,0.3125,0.0,39.87,-8.68,4.56,97.3,0.3,171.5
0,14509,0,32.52,-0.1538391,1184.813,0.09,-1.57,-10.31,3.14,2.71,9.81,0.0,-0.1875,-0.0625,39.87,-8.68,4.56,97.3,0.3,171.5
0,14551,0,32.52,-0.2104492,1267.813,0.07,-1.51,-9.94,3.14,2.71,9.81,0.1875,0.25,0.0625,39.18,-7.56,5.5,97.3,0.3,171.5
0,14587,0,32.52,-0.2717896,1267.813,0.11,-1.59,-10.41,3.14,2.71,9.81,-0.1875,0.375,-0.0625,40.25,-8.68,5.37,97.3,0.3,171.5
0,14615,0,32.52,-0.205719,1259.813,0.04,-1.56,-10.04,3.14,2.71,9.81,-0.0625,-0.25,0.0,40.25,-8.68,5.37,97.3,0.3,171.5
0,14659,0,32.52,-0.1491089,1259.813,-0.009999999,-1.55,-9.74,3.14,2.71,9.81,0.125,0.4375,0.0,39.18,-9.0,5.06,97.3,0.3,171.5
0,14683,0,32.52,-0.1491089,1259.813,0.009999999,-1.57,-9.99,3.14,2.71,9.81,-0.1875,-0.0625,-0.125,39.5,-7.56,4.75,97.3,0.3,171.5
1,18.0,39.0,48.80699,N,73.0,42.0,38.0,E,0.1892992,0.0,1.04,2.69,b'GLL',109.4614,14627.0,39.0
0,14725,0,32.52,-0.08776855,1442.813,0.04,-1.56,-10.4,3.14,2.71,9.81,0.125,-0.1875,-0.1875,39.87,-8.56,5.06,97.3,0.3,171.5
0,14751,0,32.52,-0.1491089,1442.813,-0.03,-1.53,-9.94,3.14,2.71,9.81,0.0,0.0,-0.125,39.87,-8.56,5.06,97.3,0.3,171.5
0,14775,0,32.52,-0.205719,1442.813,0.09999999,-1.49,-9.53,3.14,2.71,9.81,0.0625,0.3125,-0.0625,39.87,-7.56,3.87,97.3,0.3,171.5
0,14832,0,32.51,-0.1444092,1542.813,0.18,-1.5,-10.26,3.14,2.71,9.81,0.0,-0.4375,0.0,39.18,-7.87,5.06,97.3,0.3,171.5
0,14867,0,32.51,-0.08776855,1542.813,0.0,-1.63,-10.38,3.14,2.71,9.81,0.0,0.0625,0.0,39.87,-8.25,5.5,97.3,0.3,171.5
0,14899,0,32.51,-0.1444092,1893.813,-0.05,-1.52,-9.67,3.14,2.71,9.81,-0.0625,-0.5625,-0.0625,39.87,-8.25,5.5,97.3,0.3,171.5
0,14951,0,32.51,-0.1444092,1893.813,0.09999999,-1.43,-9.49,3.14,2.71,9.81,-0.1875,0.125,-0.0625,38.75,-9.37,5.37,97.3,0.3,171.5
0,14981,0,32.51,-0.1444092,1893.813,0.03,-1.54,-9.639999,3.14,2.71,9.81,0.3125,0.4375,0.0,39.87,-8.25,4.56,97.3,0.3,171.5
1,18.0,39.0,48.79921,N,73.0,42.0,38.0,E,0.0236624,0.0,1.04,2.69,b'ROV',109.4614,14943.0,32.0
0,15031,0,32.51,-0.1444092,1796.813,-0.009999999,-1.44,-9.469999,3.14,2.71,9.81,-0.1875,-0.125,-0.0625,39.18,-7.87,6.75,97.3,0.3,171.5
0,15063,0,32.51,-0.1444092,1796.813,0.0,-1.5,-9.58,3.14,2.71,9.81,0.0625,0.3125,-0.0625,39.18,-7.87,6.75,97.3,0.3,171.5
1,18.0,39.0,48.79921,N,73.0,42.0,38.0,E,0.0236624,0.0,1.04,2.69,b'VNC',109.4614,14943.0,112.0
0,15099,0,32.51,-0.08306885,1642.813,0.11,-1.43,-9.5,3.14,2.71,9.81,-0.0625,-0.125,0.0,39.87,-9.0,4.56,97.3,0.3,171.5
0,15147,0,32.51,-0.08306885,1642.813,-0.07,-1.59,-9.99,3.14,2.71,9.81,-0.0625,0.0625,0.0,39.18,-6.37,4.56,97.3,0.3,171.5
1,18.0,39.0,48.79921,N,73.0,42.0,38.0,E,0.0236624,0.0,1.04,2.69,b'GGA',110.0613,15089.0,51.0
0,15187,0,32.51,-0.08306885,1676.813,0.03,-1.56,-10.03,3.14,2.71,9.81,-0.25,-0.1875,0.0625,39.18,-7.56,5.0,97.3,0.3,171.5
0,15237,0,32.51,-0.02645874,1676.813,0.06,-1.54,-9.58,3.14,2.71,9.81,-0.125,0.5,-0.0625,38.75,-7.87,4.18,97.3,0.3,171.5
0,15275,0,32.51,-0.02645874,1736.813,0.09999999,-1.45,-9.49,3.14,2.71,9.81,0.0625,0.25,0.0625,39.18,-6.37,5.06,97.3,0.3,171.5
0,15326,0,32.51,-0.02645874,1736.813,-0.009999999,-1.54,-9.929999,3.14,2.71,9.81,-0.1875,0.0,-0.0625,39.18,-9.0,5.5,97.3,0.3,171.5
0,15365,0,32.51,-0.02645874,1671.813,0.0,-1.61,-10.34,3.14,2.71,9.81,-0.0625,-0.125,0.0625,39.18,-9.0,5.5,97.3,0.3,171.5
0,15395,0,32.51,-0.02645874,1671.813,-0.009999999,-1.52,-9.849999,3.14,2.71,9.81,-0.125,-0.1875,-0.0625,39.18,-7.18,5.06,97.3,0.3,171.5
0,15446,0,32.5,0.03961182,1671.813,-0.04,-1.59,-10.07,3.14,2.71,9.81,-0.125,-0.1875,-0.0625,40.25,-8.56,5.06,97.3,0.3,171.5
0,15477,0,32.5,0.03961182,1746.813,0.19,-1.46,-9.86,3.14,2.71,9.81,0.375,0.125,-0.0625,39.18,-7.87,5.37,97.3,0.3,171.5
0,15527,0,32.5,-0.02172852,1746.813,0.09999999,-1.42,-9.429999,3.14,2.71,9.81,-0.0625,-0.1875,0.0,38.37,-8.25,4.56,97.3,0.3,171.5
0,15558,0,32.5,-0.02172852,1851.813,0.03,-1.52,-9.71,3.14,2.71,9.81,0.1875,-0.1875,0.0,38.37,-8.25,4.56,97.3,0.3,171.5
0,15587,0,32.5,-0.08306885,1851.813,-0.05,-1.55,-9.67,3.14,2.71,9.81,0.125,0.5,0.0625,39.18,-9.0,4.18,97.3,0.3,171.5
0,15630,0,32.5,-0.02172852,1851.813,0.03,-1.56,-9.7,3.14,2.71,9.81,-0.125,0.0,0.125,39.5,-5.75,4.18,97.3,0.3,171.5
1,18.0,39.0,48.79921,N,73.0,42.0,38.0,E,0.0236624,0.0,1.04,2.69,b'GLL',110.0613,15586.0,44.0
0,15655,0,32.5,-0.02172852,1903.813,-0.03,-1.52,-9.71,3.14,2.71,9.81,-0.0625,0.4375,0.0625,39.5,-5.75,4.18,97.3,0.3,171.5
0,15681,0,32.5,-0.08306885,1903.813,0.0,-1.43,-9.49,3.14,2.71,9.81,-0.0625,0.1875,-0.125,39.18,-8.56,4.25,97.3,0.3,171.5
0,15724,0,32.5,-0.02172852,1903.813,-0.06,-1.56,-9.74,3.14,2.71,9.81,0.0,0.3125,-0.0625,38.75,-8.56,3.87,97.3,0.3,171.5
0,15746,0,32.5,-0.02172852,1925.813,0.0,-1.45,-9.38,3.14,2.71,9.81,-0.1875,-0.1875,-0.0625,38.75,-8.56,3.87,97.3,0.3,171.5
0,15787,0,32.5,-0.02172852,1925.813,-0.06,-1.54,-9.849999,3.14,2.71,9.81,0.1875,-0.125,0.0,39.18,-7.56,4.68,97.3,0.3,171.5
0,15834,0,32.49,-0.01699829,1925.813,0.05,-1.51,-9.599999,3.14,2.71,9.81,0.1875,0.1875,0.0625,39.87,-8.25,5.06,97.3,0.3,171.5
0,15865,0,32.49,-0.01699829,2114.813,-0.009999999,-1.55,-9.95,3.14,2.71,9.81,0.1875,0.1875,0.0625,39.87,-8.25,5.06,97.3,0.3,171.5
0,15912,0,32.49,-0.01699829,2114.813,-0.009999999,-1.57,-9.599999,3.14,2.71,9.81,0.1875,0.0625,0.0625,39.5,-8.56,5.5,97.3,0.3,171.5
0,15949,0,32.49,-0.01699829,2251.813,0.0,-1.59,-9.679999,3.14,2.71,9.81,-0.125,0.1875,0.0625,39.5,-9.0,5.06,97.3,0.3,171.5
0,16125,0,32.48,0.1669922,2076.813,0.04,-1.5,-9.61,3.14,2.71,9.81,0.125,0.4375,0.0,39.5,-8.25,3.0,97.3,0.3,171.4
1,18.0,39.0,48.78845,N,73.0,42.0,38.0,E,0.1445464,0.0,1.04,2.69,b'ROV',110.0613,15941.0,178.0
0,16177,0,32.48,0.1669922,2076.813,-0.009999999,-1.45,-9.48,3.14,2.71,9.81,-0.0625,-0.125,0.0,39.18,-8.56,4.56,97.3,0.3,171.4
0,16209,0,32.48,0.2236023,2076.813,0.04,-1.54,-9.559999,3.14,2.71,9.81,0.0625,-0.0625,0.0,39.18,-8.56,4.56,97.3,0.3,171.4
1,18.0,39.0,48.78845,N,73.0,42.0,38.0,E,0.1445464,0.0,1.04,2.69,b'VNC',110.0613,15941.0,259.0
0,16248,0,32.48,0.1669922,2422.813,-0.03,-1.45,-9.54,3.14,2.71,9.81,-0.1875,-0.0625,0.0625,39.18,-7.87,5.5,97.3,0.3,171.4
0,16295,0,32.48,0.1669922,2422.813,-0.09999999,-1.61,-9.969999,3.14,2.71,9.81,0.0,0.5625,0.0,39.87,-7.56,5.06,97.3,0.3,171.4
1,18.0,39.0,48.78845,N,73.0,42.0,38.0,E,0.1445464,0.0,1.04,2.69,b'GGA',110.8613,16237.0,51.0
0,16332,0,32.48,0.1669922,2153.813,0.14,-1.55,-9.95,3.14,2.71,9.81,0.0,-0.3125,-0.125,40.25,-7.87,5.06,97.3,0.3,171.4
0,16382,0,32.48,0.1669922,2153.813,0.03,-1.49,-9.639999,3.14,2.71,9.81,-0.25,-0.125,-0.0625,39.18,-7.18,4.56,97.3,0.3,171.4
0,16420,0,32.48,0.1056519,1881.813,0.08,-1.46,-9.53,3.14,2.71,9.81,-0.125,0.0,-0.0625,39.18,-7.18,4.56,97.3,0.3,171.4
0,16452,0,32.48,0.1056519,1881.813,0.02,-1.52,-9.65,3.14,2.71,9.81,-0.3125,0.5,-0.0625,39.5,-9.0,4.56,97.3,0.3,171.4
0,16506,0,32.48,0.1056519,1868.813,-0.11,-1.5,-9.7,3.14,2.71,9.81,0.3125,0.0625,-0.0625,39.5,-7.87,5.06,97.3,0.3,171.4
0,16537,0,32.48,0.1056519,1868.813,0.16,-1.52,-10.14,3.14,2.71,9.81,-0.125,-0.375,0.0,39.18,-7.87,4.68,97.3,0.3,171.4
0,16583,0,32.48,0.1056519,1868.813,0.03,-1.56,-10.17,3.14,2.71,9.81,0.1875,-0.0625,-0.125,39.5,-7.87,3.75,97.3,0.3,171.4
0,16830,0,32.48,-0.01229858,2190.813,0.07,-1.56,-9.96,3.14,2.71,9.81,0.25,0.0,-0.0625,39.87,-8.56,5.87,97.3,0.3,171.4
0,16863,0,32.48,-0.01229858,2190.813,0.07,-1.6,-10.32,3.14,2.71,9.81,0.125,-0.375,0.0625,39.87,-8.56,5.87,97.3,0.3,171.4
0,16908,0,32.48,-0.01229858,2365.813,0.02,-1.53,-9.67,3.14,2.71,9.81,0.125,0.25,0.0625,39.5,-4.56,5.5,97.3,0.3,171.4
0,16938,0,32.48,0.04904175,2365.813,-0.04,-1.52,-9.969999,3.14,2.71,9.81,0.25,0.125,-0.0625,39.18,-7.56,3.75,97.3,0.3,171.4
0,16982,0,32.48,-0.01229858,2371.813,0.0,-1.47,-9.67,3.14,2.71,9.81,0.125,0.5625,0.0,40.25,-8.25,4.56,97.3,0.3,171.4
0,17021,0,32.48,0.04904175,2371.813,0.05,-1.51,-9.59,3.14,2.71,9.81,-0.125,0.25,0.0,40.25,-8.25,4.56,97.3,0.3,171.4
0,17053,0,32.48,0.04904175,2371.813,0.02,-1.51,-9.63,3.14,2.71,9.81,0.125,0.5,0.0625,39.18,-8.25,3.75,97.3,0.3,171.4
1,18.0,39.0,48.78845,N,73.0,42.0,38.0,E,0.1445464,0.0,1.04,2.69,b'VNC',110.8613,16237.0,808.0
0,17109,0,32.48,0.04904175,2227.813,0.17,-1.53,-10.18,3.14,2.71,9.81,-0.125,-0.0625,-0.0625,39.87,-8.56,6.37,97.3,0.3,171.4
0,17140,0,32.48,0.04904175,2227.813,0.009999999,-1.6,-10.37,3.14,2.71,9.81,0.0625,0.25,0.0,39.87,-6.37,5.87,97.3,0.3,171.4
1,18.0,39.0,48.7793,N,73.0,42.0,38.0,E,0.1445464,0.0,1.3,2.69,b'GGA',112.1613,17099.0,34.0
0,17192,0,32.47,0.04904175,2133.813,0.05,-1.52,-9.66,3.14,2.71,9.81,0.25,0.125,0.0625,39.5,-7.56,4.68,97.3,0.3,171.4
0,17226,0,32.47,0.04904175,2133.813,0.07,-1.57,-10.13,3.14,2.71,9.81,0.3125,-0.4375,0.125,39.5,-7.18,4.68,97.3,0.3,171.4
0,17264,0,32.48,-0.01229858,2179.813,0.03,-1.53,-9.78,3.14,2.71,9.81,0.25,0.125,-0.0625,39.5,-7.18,4.68,97.3,0.3,171.4
0,17315,0,32.48,0.04904175,2179.813,0.09999999,-1.4,-9.46,3.14,2.71,9.81,-0.1875,0.0,0.0,39.18,-7.87,4.56,97.3,0.3,171.4
0,17354,0,32.47,0.04904175,2205.813,-0.07,-1.63,-10.06,3.14,2.71,9.81,-0.125,0.0,0.0625,39.87,-8.25,4.18,97.3,0.3,171.4
0,17404,0,32.48,-0.01229858,2205.813,0.09,-1.56,-9.91,3.14,2.71,9.81,0.1875,-0.5,0.125,39.18,-7.87,5.06,97.3,0.3,171.4
0,17440,0,32.48,-0.01229858,2205.813,0.08,-1.57,-10.41,3.14,2.71,9.81,0.25,0.3125,0.0,39.5,-7.18,4.56,97.3,0.3,171.4
0,17468,0,32.48,-0.01229858,2201.813,0.05,-1.61,-10.06,3.14,2.71,9.81,0.125,0.0,-0.1875,39.5,-7.18,4.56,97.3,0.3,171.4
0,17517,0,32.47,0.1103821,2201.813,-0.06,-1.52,-9.91,3.14,2.71,9.81,0.0625,-0.125,-0.0625,39.87,-7.56,5.87,97.3,0.3,171.4
0,17547,0,32.47,0.1103821,2259.813,0.14,-1.56,-10.06,3.14,2.71,9.81,0.0625,0.4375,-0.125,39.5,-7.18,4.56,97.3,0.3,171.4
0,17592,0,32.48,0.04904175,2259.813,0.03,-1.46,-9.69,3.14,2.71,9.81,-0.375,0.375,0.0,39.87,-8.25,4.18,97.3,0.3,171.4
0,17616,0,32.48,0.1056519,2259.813,0.15,-1.54,-10.17,3.14,2.71,9.81,0.0625,0.1875,0.0,39.87,-8.25,4.18,97.3,0.3,171.4
1,18.0,39.0,48.7793,N,73.0,42.0,38.0,E,0.1445464,0.0,1.3,3.48,b'GLL',112.1613,17591.0,24.0
0,17643,0,32.48,0.1056519,2251.813,0.009999999,-1.67,-10.42,3.14,2.71,9.81,0.25,0.0,-0.125,39.18,-7.56,4.25,97.3,0.3,171.4
0,17683,0,32.48,0.1669922,2251.813,0.14,-1.55,-10.19,3.14,2.71,9.81,0.1875,0.0,-0.0625,39.5,-7.56,3.37,97.3,0.3,171.4
0,17705,0,32.48,0.1669922,2251.813,0.09,-1.44,-9.49,3.14,2.71,9.81,-0.125,0.0,0.0625,39.5,-7.56,3.37,97.3,0.3,171.4
0,17747,0,32.48,0.1669922,2203.813,-0.06,-1.49,-9.69,3.14,2.71,9.81,-0.1875,-0.125,0.125,39.5,-6.75,4.68,97.3,0.3,171.4
0,17774,0,32.48,0.2283325,2203.813,0.07,-1.46,-9.59,3.14,2.71,9.81,-0.0625,0.125,-0.0625,39.5,-6.75,4.68,97.3,0.3,171.4
0,17834,0,32.48,0.2283325,2345.813,0.05,-1.5,-9.76,3.14,2.71,9.81,0.0,0.5,0.0,40.56,-7.18,3.37,97.3,0.3,171.4
0,17883,0,32.48,0.2283325,2345.813,-0.06,-1.46,-9.61,3.14,2.71,9.81,-0.0625,0.25,-0.0625,39.5,-4.56,5.56,97.3,0.3,171.4
0,17913,0,32.48,0.1669922,2345.813,0.09,-1.51,-9.71,3.14,2.71,9.81,0.0,0.0,-0.125,39.5,-4.56,5.56,97.3,0.3,171.4
0,17964,0,32.48,0.1669922,2507.813,0.09,-1.59,-10.2,3.14,2.71,9.81,0.125,-0.375,-0.0625,39.87,-8.25,5.06,97.3,0.3,171.4
0,17995,0,32.48,0.1056519,2507.813,-0.06,-1.61,-9.87,3.14,2.71,9.81,0.0,-0.0625,-0.0625,39.5,-7.18,5.87,97.3,0.3,171.4
1,18.0,39.0,48.77632,N,73.0,42.0,38.0,E,0.2695456,0.0,1.3,3.48,b'ROV',112.1613,17956.0,33.0
0,18031,0,32.48,0.1056519,2151.813,0.009999999,-1.43,-9.28,3.14,2.71,9.81,0.0625,-0.25,-0.125,39.5,-8.56,4.25,97.3,0.3,171.4
0,18081,0,32.48,0.1669922,2151.813,0.06,-1.61,-10.45,3.14,2.71,9.81,-0.375,0.5625,-0.1875,39.5,-7.87,6.37,97.3,0.3,171.4
1,18.0,39.0,48.77632,N,73.0,42.0,38.0,E,0.2695456,0.0,1.3,3.48,b'VNC',112.1613,17956.0,117.0
0,18118,0,32.48,0.1669922,2221.813,0.18,-1.46,-10.11,3.14,2.71,9.81,0.0,0.0,-0.125,39.5,-7.87,6.37,97.3,0.3,171.4
0,18169,0,32.48,0.2236023,2221.813,0.05,-1.52,-9.429999,3.14,2.71,9.81,0.0625,-0.1875,0.0,40.25,-8.25,2.18,97.3,0.3,171.4
1,18.0,39.0,48.77632,N,73.0,42.0,38.0,E,0.2695456,0.0,1.3,3.48,b'GGA',112.7614,18108.0,54.0
0,18209,0,32.48,0.2236023,2199.813,-0.08,-1.58,-9.75,3.14,2.71,9.81,-0.25,0.1875,0.0,41.0,-9.0,3.75,97.3,0.3,171.4
0,18244,0,32.48,0.2849426,2199.813,-0.04,-1.51,-9.96,3.14,2.71,9.81,-0.1875,-0.25,0.0,40.56,-7.87,3.75,97.3,0.3,171.4
0,18296,0,32.48,0.2236023,2278.813,0.06,-1.52,-9.849999,3.14,2.71,9.81,-0.3125,0.625,-0.125,41.0,-7.87,4.25,97.3,0.3,171.4
0,18326,0,32.48,0.2236023,2278.813,0.09,-1.55,-10.21,3.14,2.71,9.81,0.25,0.0625,-0.125,41.0,-7.87,4.25,97.3,0.3,171.4
0,18377,0,32.48,0.2849426,2278.813,0.07,-1.4,-9.37,3.14,2.71,9.81,-0.1875,0.0625,-0.125,40.56,-7.87,3.75,97.3,0.3,171.4
0,18407,0,32.48,0.2849426,2355.813,0.009999999,-1.5,-9.8,3.14,2.71,9.81,0.0,0.25,-0.0625,39.87,-8.56,4.25,97.3,0.3,171.4
0,18443,0,32.48,0.2849426,2355.813,0.09999999,-1.54,-10.14,3.14,2.71,9.81,-0.3125,0.375,0.0,39.87,-9.0,3.37,97.3,0.3,171.4
0,18488,0,32.48,0.2849426,2255.813,0.009999999,-1.54,-9.7,3.14,2.71,9.81,-0.0625,0.125,-0.125,40.25,-8.56,5.5,97.3,0.3,171.4
0,18683,0,32.48,0.2849426,2138.813,0.13,-1.55,-10.14,3.14,2.71,9.81,0.125,-0.0625,-0.1875,40.25,-8.25,4.25,97.3,0.3,171.4
0,18714,0,32.48,0.2236023,2138.813,-0.11,-1.58,-10.31,3.14,2.71,9.81,0.1875,0.25,0.0625,40.25,-8.25,4.25,97.3,0.3,171.4
0,18757,0,32.48,0.2236023,2138.813,0.02,-1.53,-9.719999,3.14,2.71,9.81,0.125,0.375,0.125,40.25,-7.18,3.75,97.3,0.3,171.4
0,18781,0,32.48,0.2849426,2295.813,-0.08,-1.54,-10.33,3.14,2.71,9.81,-0.0625,-0.125,0.125,40.25,-7.18,3.75,97.3,0.3,171.4
1,18.0,39.0,48.77632,N,73.0,42.0,38.0,E,0.2695456,0.0,1.3,3.48,b'GLL',112.7614,18756.0,24.0
0,18860,0,32.48,0.2849426,2315.813,0.12,-1.6,-10.14,3.14,2.71,9.81,0.1875,0.1875,-0.0625,39.87,-7.56,3.37,97.3,0.3,171.4
0,18896,0,32.48,0.2849426,2315.813,0.19,-1.59,-10.16,3.14,2.71,9.81,0.375,0.375,0.0625,39.5,-8.68,2.06,97.3,0.3,171.4
0,18927,0,32.48,0.2849426,2315.813,0.09,-1.64,-10.05,3.14,2.71,9.81,0.125,-0.0625,-0.0625,39.5,-8.68,2.06,97.3,0.3,171.4
0,18978,0,32.48,0.2849426,2254.813,-0.05,-1.49,-9.75,3.14,2.71,9.81,-0.125,0.0625,0.0625,39.5,-8.25,5.18,97.3,0.3,171.4
0,19008,0,32.48,0.2236023,2254.813,-0.03,-1.51,-9.65,3.14,2.71,9.81,-0.125,0.0625,0.0625,40.25,-9.0,5.06,97.3,0.3,171.4
1,18.0,39.0,48.77403,N,73.0,42.0,38.0,E,0.0108024,0.0,1.3,3.48,b'ROV',112.7614,18939.0,48.0
0,19058,0,32.49,0.162262,2025.813,-0.04,-1.52,-10.35,3.14,2.71,9.81,-0.1875,0.0625,0.0,39.87,-7.87,4.56,97.3,0.3,171.4
0,19091,0,32.49,0.162262,2025.813,-0.07,-1.46,-10.01,3.14,2.71,9.81,-0.0625,-0.1875,0.0,40.25,-9.37,3.37,97.3,0.3,171.4
1,18.0,39.0,48.77403,N,73.0,42.0,38.0,E,0.0108024,0.0,1.3,3.48,b'VNC',112.7614,18939.0,128.0
0,19132,0,32.49,0.162262,2025.813,-0.07,-1.51,-10.42,3.14,2.71,9.81,-0.125,0.0,-0.0625,40.25,-9.37,3.37,97.3,0.3,171.4
0,19178,0,32.49,0.162262,2182.813,0.05,-1.54,-9.53,3.14,2.71,9.81,0.0625,0.375,0.0625,40.25,-8.25,4.25,97.3,0.3,171.4
1,18.0,39.0,48.77403,N,73.0,42.0,38.0,E,0.0108024,0.0,1.26,3.48,b'GGA',113.0613,19106.0,33.0
0,19216,0,32.48,0.2236023,2182.813,0.08,-1.58,-9.95,3.14,2.71,9.81,0.0,0.3125,0.125,39.87,-5.75,3.75,97.3,0.3,171.4
0,19264,0,32.48,0.2236023,2220.813,-0.09,-1.5,-9.9,3.14,2.71,9.81,0.1875,-0.25,0.125,41.0,-8.68,3.75,97.3,0.3,171.4
0,19304,0,32.48,0.1669922,2220.813,0.0,-1.49,-10.01,3.14,2.71,9.81,-0.25,-0.3125,0.1875,39.87,-7.18,3.37,97.3,0.3,171.4
0,19338,0,32.48,0.1669922,2177.813,0.06,-1.54,-9.5,3.14,2.71,9.81,-0.0625,0.0625,0.0,39.87,-8.56,4.25,97.3,0.3,171.4
